Type,X,Y,OBJECTID,Call_Taken,Location,Latitude,Longitude,Ward,Community,Neighborho,Tow_Zone,Day,Snow_Emerg
TOW,-93.288021,45.013111,1,02/12/2019 09:18pm,"3201-3299 lyndale ave n ,Minneapolis,MN",45.013111,-93.288021,4,Camden,McKinley,1,1,Westminster
TOW,-93.262588,44.94139,2,02/12/2019 09:19pm,"3398 Chicago ave s,Minneapolis,MN",44.94139,-93.262588,9,Powderhorn,Central,5,1,Westminster
TOW,-93.262606,44.943159,3,02/12/2019 09:19pm,"3301 Chicago Avenue South,Minneapolis,MN",44.943159,-93.262606,9,Powderhorn,Central,5,1,Westminster
TOW,-93.288036,45.016708,4,02/12/2019 09:26pm,"3400-3498 lyndale ave n ,Minneapolis,MN",45.016708,-93.288036,4,Camden,McKinley,1,1,Westminster
TOW,-93.288049,45.01849,5,02/12/2019 09:34pm,"3498 Lyndale Ave n,Minneapolis,MN",45.01849,-93.288049,4,Camden,McKinley,1,1,Westminster
TOW,-93.277559,44.963797,6,02/12/2019 09:38pm,"1 E 19TH ST,Minneapolis,MN",44.963797,-93.277559,6,Central,Steven's Square - Loring Heights,3,1,Westminster
TOW,-93.288036,45.016708,7,02/12/2019 09:40pm,"3400 Lyndale Ave n ,Minneapolis,MN",45.016708,-93.288036,4,Camden,McKinley,1,1,Westminster
TOW,-93.276939,44.964115,8,02/12/2019 09:45pm,"16 EAST / 19TH ST,Minneapolis,MN",44.964115,-93.276939,6,Central,Steven's Square - Loring Heights,3,1,Westminster
TOW,-93.276939,44.964115,9,02/12/2019 09:47pm,"16 19th st e,Minneapolis,MN",44.964115,-93.276939,6,Central,Steven's Square - Loring Heights,3,1,Westminster
TOW,-93.262901,44.939686,10,02/12/2019 10:04pm,"3458 Chicago Ave,Minneapolis,MN",44.939686,-93.262901,9,Powderhorn,Central,5,1,Westminster
TOW,-93.235311,44.987678,11,02/12/2019 10:08pm,"1116 Como Ave se,Minneapolis,MN",44.987678,-93.235311,2,University,Como,4,1,Westminster
TOW,-93.279701,44.948359,12,02/12/2019 10:10pm,"3000 Blaisdell ,Minneapolis,MN",44.948359,-93.279701,10,Powderhorn,Whittier,3,1,Westminster
TOW,-93.288113,45.029786,13,02/12/2019 10:11pm,"4100 lyndale ave n,Minneapolis,MN",45.029786,-93.288113,4,Camden,Webber - Camden,1,1,Westminster
TOW,-93.234368,44.988003,14,02/12/2019 10:14pm,"1203 como ave se,Minneapolis,MN",44.988003,-93.234368,2,University,Como,4,1,Westminster
TOW,-93.288113,45.029786,15,02/12/2019 10:14pm,"4100 Lyndale Ave N,Minneapolis,MN",45.029786,-93.288113,4,Camden,Webber - Camden,1,1,Westminster
TOW,-93.288113,45.029786,16,02/12/2019 10:14pm,"4100 lyndale ave n,Minneapolis,MN",45.029786,-93.288113,4,Camden,Webber - Camden,1,1,Westminster
TOW,-93.26271,44.901657,17,02/12/2019 10:18pm,"5580 Chicago Avenue South,Minneapolis,MN",44.901657,-93.26271,11,Nokomis,Diamond Lake,5,1,Westminster
TOW,-93.286223,45.038466,18,02/12/2019 10:19pm,"4600-4698 lyndale ave n ,Minneapolis,MN",45.038466,-93.286223,4,Camden,Camden Industrial,1,1,Westminster
TOW,-93.284856,45.043116,19,02/12/2019 10:21pm,"4816 Lyndale Ave n,Minneapolis,MN",45.043116,-93.284856,4,Camden,Lind - Bohanon,1,1,Westminster
TOW,-93.294142,45.010084,20,02/12/2019 10:23pm,"2914 emerson,Minneapolis,MN",45.010084,-93.294142,5,Near North,Hawthorne,1,1,Westminster
TOW,-93.270034,44.980257,21,02/12/2019 10:23pm,"300 Block of central,Minneapolis,MN",44.980257,-93.270034,3,Central,Downtown West,3,1,Westminster
TOW,-93.291119,45.036847,22,02/12/2019 10:24pm,"4500-4598 Bryant ave n ,Minneapolis,MN",45.036847,-93.291119,4,Camden,Lind - Bohanon,1,1,Westminster
TOW,-93.262861,44.923878,23,02/12/2019 10:25pm,"4340 Chicago Avenue South,Minneapolis,MN",44.923878,-93.262861,8,Nokomis,Regina,5,1,Westminster
TOW,-93.262822,44.929857,24,02/12/2019 10:28pm,"4020 Chicago Avenue South,Minneapolis,MN",44.929857,-93.262822,8,Powderhorn,Bryant,5,1,Westminster
TOW,-93.236833,45.030075,25,02/12/2019 10:29pm,"3419 Johnson st ne,Minneapolis,MN",45.030075,-93.236833,1,Northeast,Waite Park,2,1,Westminster
TOW,-93.24743,45.02568,26,02/12/2019 10:31pm,"3194 Central Ave NE,Minneapolis,MN",45.02568,-93.24743,1,Northeast,Columbia Park,2,1,Westminster
TOW,-93.262901,44.916003,27,02/12/2019 10:33pm,"4800 Chicago ave s,Minneapolis,MN",44.916003,-93.262901,8,Nokomis,Field,5,1,Westminster
TOW,-93.248712,44.984692,28,02/12/2019 10:35pm,"503 unniversity ave se,Minneapolis,MN",44.984692,-93.248712,3,University,Marcy Holmes,4,1,Westminster
TOW,-93.262689,44.948357,29,02/12/2019 10:35pm,"3000 Chicago ave s,Minneapolis,MN",44.948357,-93.262689,6,Phillips,Phillips West,3,1,Westminster
TOW,-93.236807,45.021465,30,02/12/2019 10:36pm,"2935 Johnson st NE,Minneapolis,MN",45.021465,-93.236807,1,Northeast,Audubon Park,2,1,Westminster
TOW,-93.279706,44.946574,31,02/12/2019 10:37pm,"3100 block of Blaisdell Avenue so,Minneapolis,MN",44.946574,-93.279706,8,Powderhorn,Lyndale,5,1,Westminster
TOW,-93.313643,45.033374,32,02/12/2019 10:38pm,"4299 Thomas Ave n ,Minneapolis,MN",45.033374,-93.313643,4,Camden,Victory,1,1,Westminster
TOW,-93.280114,44.944558,33,02/12/2019 10:41pm,"3200 block of Blaisdell Avenue so,Minneapolis,MN",44.944558,-93.280114,8,Powderhorn,Lyndale,5,1,Westminster
TOW,-93.242507,44.964018,34,02/12/2019 10:41pm,"21st Ave and 9th st s,Minneapolis,MN",44.964018,-93.242507,6,Longfellow,Seward,4,1,Westminster
TOW,-93.247964,44.984395,35,02/12/2019 10:44pm,"523 university ave se,Minneapolis,MN",44.984395,-93.247964,3,University,Marcy Holmes,4,1,Westminster
TOW,-93.247368,45.008882,36,02/12/2019 10:46pm,"1998 Central ave ne,Minneapolis,MN",45.008882,-93.247368,1,Northeast,Holland,2,1,Westminster
TOW,-93.247412,45.029434,37,02/12/2019 10:49pm,"3400 Block of central ave Ne,Minneapolis,MN",45.029434,-93.247412,1,Northeast,Columbia Park,2,1,Westminster
TOW,-93.245131,44.983287,38,02/12/2019 10:53pm,"717 university ave se,Minneapolis,MN",44.983287,-93.245131,3,University,Marcy Holmes,4,1,Westminster
TOW,-93.280114,44.944558,39,02/12/2019 10:54pm,"3200 Blaisdell ave south,Minneapolis,MN",44.944558,-93.280114,8,Powderhorn,Lyndale,5,1,Westminster
TOW,-93.248486,44.984603,40,02/12/2019 10:54pm,"507 UNIVERSITY AVE SE,Minneapolis,MN",44.984603,-93.248486,3,University,Marcy Holmes,4,1,Westminster
TOW,-93.290328,44.988667,41,02/12/2019 10:57pm,"1049 7th st n,Minneapolis,MN",44.988667,-93.290328,5,Near North,Sumner - Glenwood,1,1,Westminster
TOW,-93.252412,44.937765,42,02/12/2019 10:58pm,"3598 Bloomington ave s,Minneapolis,MN",44.937765,-93.252412,9,Powderhorn,Powderhorn Park,6,1,Westminster
TOW,-93.244366,44.982961,43,02/12/2019 10:59pm,"803 UNIVERSITY AVE SE,Minneapolis,MN",44.982961,-93.244366,3,University,Marcy Holmes,4,1,Westminster
TOW,-93.252835,44.910536,44,02/12/2019 11:00pm,"5100 Bloomington,Minneapolis,MN",44.910536,-93.252835,11,Nokomis,Hale,6,1,Westminster
TOW,-93.26294,44.941224,45,02/12/2019 11:02pm,"3400 chicago,Minneapolis,MN",44.941224,-93.26294,9,Powderhorn,Central,5,1,Westminster
TOW,-93.253233,45.001206,46,02/12/2019 11:03pm,"687 13th ave NE,Minneapolis,MN",45.001206,-93.253233,1,Northeast,Logan Park,2,1,Westminster
TOW,-93.275241,44.987824,47,02/12/2019 11:04pm,"625 2nd st N,Minneapolis,MN",44.987824,-93.275241,3,Central,North Loop,1,1,Westminster
TOW,-93.275235,44.987801,48,02/12/2019 11:04pm,"619 2nd st n ,Minneapolis,MN",44.987801,-93.275235,3,Central,North Loop,1,1,Westminster
TOW,-93.263092,45.007453,49,02/12/2019 11:06pm,"1899 University ave ne,Minneapolis,MN",45.007453,-93.263092,1,Northeast,Holland,2,1,Westminster
TOW,-93.260985,45.00074,50,02/12/2019 11:10pm,"414 13th ave NE,Minneapolis,MN",45.00074,-93.260985,3,Northeast,Sheridan,2,1,Westminster
TOW,-93.279706,44.946574,51,02/12/2019 11:11pm,"3100 blaisdell ave so,Minneapolis,MN",44.946574,-93.279706,8,Powderhorn,Lyndale,5,1,Westminster
TOW,-93.260148,45.000913,52,02/12/2019 11:12pm,"509 13th ave ne,Minneapolis,MN",45.000913,-93.260148,3,Northeast,Sheridan,2,1,Westminster
TOW,-93.279706,44.946574,53,02/12/2019 11:13pm,"3100 blaisdell ave so,Minneapolis,MN",44.946574,-93.279706,8,Powderhorn,Lyndale,5,1,Westminster
TOW,-93.30069,44.952824,54,02/12/2019 11:19pm,"2737 Irving ave s ,Minneapolis,MN",44.952824,-93.30069,7,Calhoun Isle,East Isles,3,1,Westminster
TOW,-93.252411,44.935934,55,02/12/2019 11:21pm,"3699 bloomington ave,Minneapolis,MN",44.935934,-93.252411,9,Powderhorn,Powderhorn Park,6,1,Westminster
TOW,-93.301717,44.949748,56,02/12/2019 11:21pm,"2871 IRVING AVE S ,Minneapolis,MN",44.949748,-93.301717,7,Calhoun Isle,East Isles,3,1,Westminster
TOW,-93.270668,44.987426,57,02/12/2019 11:22pm,"98 4th ave n,Minneapolis,MN",44.987426,-93.270668,3,Central,North Loop,3,1,Westminster
TOW,-93.301214,44.953351,58,02/12/2019 11:24pm,"2724 Irving Ave S,Minneapolis,MN",44.953351,-93.301214,7,Calhoun Isle,East Isles,3,1,Westminster
TOW,-93.313889,45.029676,59,02/12/2019 11:24pm,"4101 THOMAS AVE N ,Minneapolis,MN",45.029676,-93.313889,4,Camden,Victory,1,1,Westminster
TOW,-93.219833,44.970796,60,02/12/2019 11:25pm,"177 27th ave se,Minneapolis,MN",44.970796,-93.219833,2,University,Prospect Park - East River Road,4,1,Westminster
TOW,-93.299396,44.956818,61,02/12/2019 11:26pm,"2513 IRVING AVE S,Minneapolis,MN",44.956818,-93.299396,7,Calhoun Isle,East Isles,3,1,Westminster
TOW,-93.269484,44.988078,62,02/12/2019 11:26pm,"101 4th ave n,Minneapolis,MN",44.988078,-93.269484,3,Central,North Loop,3,1,Westminster
TOW,-93.301776,44.951186,63,02/12/2019 11:27pm,"2841 Irving Ave s,Minneapolis,MN",44.951186,-93.301776,7,Calhoun Isle,East Isles,3,1,Westminster
TOW,-93.313603,45.031304,64,02/12/2019 11:29pm,"4199 thomas ave n,Minneapolis,MN",45.031304,-93.313603,4,Camden,Victory,1,1,Westminster
TOW,-93.294478,45.000416,65,02/12/2019 11:32pm,"2101 EMERSON AVE N ,Minneapolis,MN",45.000416,-93.294478,5,Near North,Jordan,1,1,Westminster
TOW,-93.302348,44.951622,66,02/12/2019 11:32pm,"2832 Irving Ave s,Minneapolis,MN",44.951622,-93.302348,7,Calhoun Isle,East Isles,3,1,Westminster
TOW,-93.239049,44.963982,67,02/12/2019 11:33pm,"2242 9TH ST S,Minneapolis,MN",44.963982,-93.239049,6,Longfellow,Seward,4,1,Westminster
TOW,-93.223326,44.900518,68,02/12/2019 11:36pm,"5642 34 ave s,Minneapolis,MN",44.900518,-93.223326,11,Nokomis,Wenonah,6,1,Westminster
TOW,-93.268821,45.00028,69,02/12/2019 11:36pm,"120 13th ave,Minneapolis,MN",45.00028,-93.268821,3,Northeast,Sheridan,2,1,Westminster
TOW,-93.278261,44.98543,70,02/12/2019 11:37pm,"600 4th st n,Minneapolis,MN",44.98543,-93.278261,3,Central,North Loop,1,1,Westminster
TOW,-93.294416,44.998861,71,02/12/2019 11:38pm,"1901 Emerson ave n ,Minneapolis,MN",44.998861,-93.294416,5,Near North,Near - North,1,1,Westminster
TOW,-93.232415,44.988021,72,02/12/2019 11:39pm,"1313 como ave se,Minneapolis,MN",44.988021,-93.232415,2,University,Como,4,1,Westminster
TOW,-93.239905,44.963688,73,02/12/2019 11:40pm,"2211 9th st s,Minneapolis,MN",44.963688,-93.239905,6,Longfellow,Seward,4,1,Westminster
TOW,-93.301214,44.953351,74,02/12/2019 11:43pm,"2724 IRVING AVE S,Minneapolis,MN",44.953351,-93.301214,7,Calhoun Isle,East Isles,3,1,Westminster
TOW,-93.301796,44.950621,75,02/12/2019 11:43pm,"2857 Irving ave s ,Minneapolis,MN",44.950621,-93.301796,7,Calhoun Isle,East Isles,3,1,Westminster
TOW,-93.279744,44.934105,76,02/12/2019 11:44pm,"3800 blaisdell ave so,Minneapolis,MN",44.934105,-93.279744,8,Southwest,King Field,5,1,Westminster
TOW,-93.239958,44.963689,77,02/12/2019 11:44pm,"2217 9TH ST S,Minneapolis,MN",44.963689,-93.239958,6,Longfellow,Seward,4,1,Westminster
TOW,-93.229763,44.987685,78,02/12/2019 11:45pm,"1512 como ave se,Minneapolis,MN",44.987685,-93.229763,2,University,Como,4,1,Westminster
TOW,-93.267222,45.001252,79,02/12/2019 11:46pm,"143 13th ave ne,Minneapolis,MN",45.001252,-93.267222,3,Northeast,Sheridan,2,1,Westminster
TOW,-93.226506,44.969891,80,02/12/2019 11:48pm,"609 oak st se,Minneapolis,MN",44.969891,-93.226506,2,University,Prospect Park - East River Road,4,1,Westminster
TOW,-93.266674,45.001099,81,02/12/2019 11:50pm,"171 13th ave,Minneapolis,MN",45.001099,-93.266674,3,Northeast,Sheridan,2,1,Westminster
TOW,-93.301796,44.950621,82,02/12/2019 11:51pm,"2857 IRVING AVE S ,Minneapolis,MN",44.950621,-93.301796,7,Calhoun Isle,East Isles,3,1,Westminster
TOW,-93.281374,44.988633,83,02/12/2019 11:51pm,"901 3rd st n,Minneapolis,MN",44.988633,-93.281374,3,Central,North Loop,1,1,Westminster
TOW,-93.280074,44.942774,84,02/12/2019 11:52pm,"3300 block of Blaisdell Avenue so,Minneapolis,MN",44.942774,-93.280074,8,Powderhorn,Lyndale,5,1,Westminster
TOW,-93.278261,44.98543,85,02/12/2019 11:52pm,"600 4th st n,Minneapolis,MN",44.98543,-93.278261,3,Central,North Loop,1,1,Westminster
TOW,-93.238172,44.967234,86,02/12/2019 11:55pm,"24TH AVE S & 9TH ST ,Minneapolis,MN",44.967234,-93.238172,2,University,Cedar Riverside,4,1,Westminster
TOW,-93.280074,44.942774,87,02/12/2019 11:56pm,"3300 block of Blaisdell Avenue so,Minneapolis,MN",44.942774,-93.280074,8,Powderhorn,Lyndale,5,1,Westminster
TOW,-93.301776,44.951186,88,02/12/2019 11:56pm,"2841 Irving av s ,Minneapolis,MN",44.951186,-93.301776,7,Calhoun Isle,East Isles,3,1,Westminster
TOW,-93.300006,44.954523,89,02/12/2019 11:57pm,"2643 IRVING AVE S,Minneapolis,MN",44.954523,-93.300006,7,Calhoun Isle,East Isles,3,1,Westminster
TOW,-93.262882,44.923811,90,02/12/2019 11:58pm,"4342 Chicago Avenue South,Minneapolis,MN",44.923811,-93.262882,8,Nokomis,Regina,5,1,Westminster
TOW,-93.282878,44.988683,91,02/12/2019 11:58pm,"998 4th st n,Minneapolis,MN",44.988683,-93.282878,5,Central,North Loop,1,1,Westminster
TOW,-93.238172,44.967234,92,02/13/2019 12:00am,"24TH AVE S & 9TH ST ,Minneapolis,MN",44.967234,-93.238172,2,University,Cedar Riverside,4,1,Westminster
TOW,-93.252641,45.013465,93,02/13/2019 12:01am,"2500 Monroe st ne,Minneapolis,MN",45.013465,-93.252641,1,Northeast,Holland,2,1,Westminster
TOW,-93.301717,44.95106,94,02/13/2019 12:03am,"2845 Irving Ave S,Minneapolis,MN",44.95106,-93.301717,7,Calhoun Isle,East Isles,3,1,Westminster
TOW,-93.235611,45.012673,95,02/13/2019 12:05am,"1720 Lowery ave ne,Minneapolis,MN",45.012673,-93.235611,1,Northeast,Windom Park,2,1,Westminster
TOW,-93.227338,44.940287,96,02/13/2019 12:05am,"3432 31st Avenue South,Minneapolis,MN",44.940287,-93.227338,12,Longfellow,Howe,6,1,Westminster
TOW,-93.294206,44.958399,97,02/13/2019 12:07am,"2425 Hennepin Ave South,Minneapolis,MN",44.958399,-93.294206,10,Calhoun Isle,Lowry Hill East,3,1,Westminster
TOW,-93.219368,44.971363,98,02/13/2019 12:08am,"201-299 27th av se,Minneapolis,MN",44.971363,-93.219368,2,University,Prospect Park - East River Road,4,1,Westminster
TOW,-93.252175,44.944554,99,02/13/2019 12:10am,"3201 Bloomington Ave S ,Minneapolis,MN",44.944554,-93.252175,9,Powderhorn,Powderhorn Park,6,1,Westminster
TOW,-93.257071,44.989004,100,02/13/2019 12:11am,"99-1 University ave Ne,Minneapolis,MN",44.989004,-93.257071,3,University,Nicollet Island - East Bank,2,1,Westminster
TOW,-93.275327,44.934118,101,02/13/2019 12:11am,"1-99 38th St E,Minneapolis,MN",44.934118,-93.275327,8,Southwest,King Field,5,1,Westminster
TOW,-93.294047,45.014927,102,02/13/2019 12:11am,"3298 Emerson ave n ,Minneapolis,MN",45.014927,-93.294047,4,Camden,Folwell,1,1,Westminster
TOW,-93.294726,44.962898,103,02/13/2019 12:12am,"1200 franklin,Minneapolis,MN",44.962898,-93.294726,7,Calhoun Isle,Lowry Hill,3,1,Westminster
TOW,-93.278261,44.98543,104,02/13/2019 12:12am,"600 4th st n,Minneapolis,MN",44.98543,-93.278261,3,Central,North Loop,1,1,Westminster
TOW,-93.258657,44.987179,105,02/13/2019 12:13am,"2 - 98 Lourdes pl,Minneapolis,MN",44.987179,-93.258657,3,University,Nicollet Island - East Bank,4,1,Westminster
TOW,-93.227082,44.948377,106,02/13/2019 12:14am,"3000 31st av s,Minneapolis,MN",44.948377,-93.227082,2,Longfellow,Longfellow,4,1,Westminster
TOW,-93.245455,44.983952,107,02/13/2019 12:14am,"700 4st n,Minneapolis,MN",44.983952,-93.245455,3,University,Marcy Holmes,4,1,Westminster
TOW,-93.29531,45.016914,108,02/13/2019 12:14am,"3400-3498 Fremont ave n ,Minneapolis,MN",45.016914,-93.29531,4,Camden,Folwell,1,1,Westminster
TOW,-93.298375,44.952833,109,02/13/2019 12:15am,"2730 hennepin ,Minneapolis,MN",44.952833,-93.298375,7,Calhoun Isle,East Isles,3,1,Westminster
TOW,-93.257863,44.986553,110,02/13/2019 12:15am,"98 Lourdes Pl Ne,Minneapolis,MN",44.986553,-93.257863,3,University,Nicollet Island - East Bank,4,1,Westminster
TOW,-93.220409,44.926932,111,02/13/2019 12:16am,"3600 42nd st,Minneapolis,MN",44.926932,-93.220409,12,Longfellow,Hiawatha,6,1,Westminster
TOW,-93.278943,44.985788,112,02/13/2019 12:16am,"700 4th st n ,Minneapolis,MN",44.985788,-93.278943,3,Central,North Loop,1,1,Westminster
TOW,-93.262802,44.924992,113,02/13/2019 12:17am,"4300 Chicago ave s,Minneapolis,MN",44.924992,-93.262802,8,Nokomis,Regina,5,1,Westminster
TOW,-93.282678,44.967838,114,02/13/2019 12:19am,"300 15TH ST W,Minneapolis,MN",44.967838,-93.282678,7,Central,Loring Park,3,1,Westminster
TOW,-93.243184,44.960982,115,02/13/2019 12:20am,"2188 MINNEHAHA AVE S,Minneapolis,MN",44.960982,-93.243184,6,Longfellow,Seward,4,1,Westminster
TOW,-93.298584,44.952607,116,02/13/2019 12:20am,"2736 HENNEPIN AVE ,Minneapolis,MN",44.952607,-93.298584,7,Calhoun Isle,East Isles,3,1,Westminster
TOW,-93.22709,44.946834,117,02/13/2019 12:21am,"3100 31st ave s,Minneapolis,MN",44.946834,-93.22709,2,Longfellow,Longfellow,6,1,Westminster
TOW,-93.282678,44.967838,118,02/13/2019 12:23am,"300 15TH ST W,Minneapolis,MN",44.967838,-93.282678,7,Central,Loring Park,3,1,Westminster
TOW,-93.290992,44.984098,119,02/13/2019 12:24am,"401 6th avenue North,Minneapolis,MN",44.984098,-93.290992,5,Near North,Sumner - Glenwood,3,1,Westminster
TOW,-93.253432,44.934315,120,02/13/2019 12:27am,"1500 BLOCK 38TH ST E,Minneapolis,MN",44.934315,-93.253432,9,Powderhorn,Powderhorn Park,6,1,Westminster
TOW,-93.250682,44.946418,121,02/13/2019 12:27am,"1611 31st st e,Minneapolis,MN",44.946418,-93.250682,9,Powderhorn,Powderhorn Park,6,1,Westminster
TOW,-93.286022,44.968446,122,02/13/2019 12:29am,"300 498 15th Street West,Minneapolis,MN",44.968446,-93.286022,7,Central,Loring Park,3,1,Westminster
TOW,-93.295666,45.025781,123,02/13/2019 12:35am,"3898 Fremont Ave n,Minneapolis,MN",45.025781,-93.295666,4,Camden,Webber - Camden,1,1,Westminster
TOW,-93.216134,44.972643,124,02/13/2019 12:36am,"2830 4th st se,Minneapolis,MN",44.972643,-93.216134,2,University,Prospect Park - East River Road,4,1,Westminster
TOW,-93.295474,45.029726,125,02/13/2019 12:36am,"4100 Freemont Ave N,Minneapolis,MN",45.029726,-93.295474,4,Camden,Webber - Camden,1,1,Westminster
TOW,-93.273786,44.940513,126,02/13/2019 12:38am,"3425 2ND AVE S,Minneapolis,MN",44.940513,-93.273786,9,Powderhorn,Central,5,1,Westminster
TOW,-93.301753,44.950525,127,02/13/2019 12:38am,"2861 Irving Ave s,Minneapolis,MN",44.950525,-93.301753,7,Calhoun Isle,East Isles,3,1,Westminster
TOW,-93.239958,44.963689,128,02/12/2019 11:42pm,"2217 S 9 St,Minneapolis,MN",44.963689,-93.239958,6,Longfellow,Seward,4,1,Westminster
TOW,-93.243107,44.960177,129,02/13/2019 12:39am,"2296 MINNEHAHA AVE,Minneapolis,MN",44.960177,-93.243107,6,Longfellow,Seward,4,1,Westminster
TOW,-93.296901,45.023996,130,02/13/2019 12:41am,"1398 Dowling Ave n,Minneapolis,MN",45.023996,-93.296901,4,Camden,Folwell,1,1,Westminster
TOW,-93.268698,44.968301,131,02/13/2019 12:41am,"500 15TH ST W,Minneapolis,MN",44.968301,-93.268698,7,Central,Elliot Park,3,1,Westminster
TOW,-93.293699,44.959254,132,02/13/2019 12:41am,"2339 hennepin ave ,Minneapolis,MN",44.959254,-93.293699,10,Calhoun Isle,Lowry Hill East,3,1,Westminster
TOW,-93.285815,44.968219,133,02/13/2019 12:41am,"430 OAK GROVE ,Minneapolis,MN",44.968219,-93.285815,7,Central,Loring Park,3,1,Westminster
TOW,-93.293173,44.981893,134,02/13/2019 12:42am,"208 Van white memorial blvd ,Minneapolis,MN",44.981893,-93.293173,5,Near North,Sumner - Glenwood,3,1,Westminster
TOW,-93.270207,44.939551,135,02/13/2019 12:42am,"3500 4th ave s,Minneapolis,MN",44.939551,-93.270207,9,Powderhorn,Central,5,1,Westminster
TOW,-93.281039,44.967466,136,02/13/2019 12:42am,"201 15 st w ,Minneapolis,MN",44.967466,-93.281039,7,Central,Loring Park,3,1,Westminster
TOW,-93.293072,44.962704,137,02/13/2019 12:45am,"Franklin Ave at Dupont Ave s,Minneapolis,MN",44.962704,-93.293072,7,Calhoun Isle,Lowry Hill,3,1,Westminster
TOW,-93.279336,44.967717,138,02/13/2019 12:45am,"100 15TH ST W,Minneapolis,MN",44.967717,-93.279336,7,Central,Loring Park,3,1,Westminster
TOW,-93.281656,44.968032,139,02/13/2019 12:45am,"214 15TH ST E,Minneapolis,MN",44.968032,-93.281656,7,Central,Loring Park,3,1,Westminster
TOW,-93.278758,44.967532,140,02/13/2019 12:52am,"19 15th Street West,Minneapolis,MN",44.967532,-93.278758,7,Central,Loring Park,3,1,Westminster
TOW,-93.225121,44.970031,141,02/13/2019 12:54am,"908 Fulton st se,Minneapolis,MN",44.970031,-93.225121,2,University,Prospect Park - East River Road,4,1,Westminster
TOW,-93.236117,44.981686,142,02/13/2019 12:54am,"1306 5TH ST SE,Minneapolis,MN",44.981686,-93.236117,3,University,Marcy Holmes,4,1,Westminster
TOW,-93.227339,44.940164,143,02/13/2019 12:55am,"3436 31st ave s,Minneapolis,MN",44.940164,-93.227339,12,Longfellow,Howe,6,1,Westminster
TOW,-93.269691,44.948402,144,02/13/2019 12:55am,"4TH & LAKE ST ,Minneapolis,MN",44.948402,-93.269691,6,Phillips,Phillips West,3,1,Westminster
TOW,-93.263792,44.995243,145,02/13/2019 12:55am,"700 block 2nd st ne,Minneapolis,MN",44.995243,-93.263792,3,Northeast,St. Anthony West,2,1,Westminster
TOW,-93.295995,45.026003,146,02/13/2019 12:56am,"3901Fremont ave n ,Minneapolis,MN",45.026003,-93.295995,4,Camden,Webber - Camden,1,1,Westminster
TOW,-93.262053,44.993141,147,02/13/2019 12:58am,"500 block 2nd st ne,Minneapolis,MN",44.993141,-93.262053,3,Northeast,St. Anthony West,2,1,Westminster
TOW,-93.22734,44.940101,148,02/13/2019 12:58am,"3438 31st ave s,Minneapolis,MN",44.940101,-93.22734,12,Longfellow,Howe,6,1,Westminster
TOW,-93.295494,45.018638,149,02/13/2019 01:00am,"3500 FREMONT AVE N ,Minneapolis,MN",45.018638,-93.295494,4,Camden,Folwell,1,1,Westminster
TOW,-93.227082,44.948377,150,02/13/2019 01:02am,"3000 31st ave so,Minneapolis,MN",44.948377,-93.227082,2,Longfellow,Longfellow,4,1,Westminster
TOW,-93.235375,44.987684,151,02/13/2019 01:03am,"1108 Como Avenue se,Minneapolis,MN",44.987684,-93.235375,2,University,Como,4,1,Westminster
TOW,-93.27693,44.935795,152,02/13/2019 01:03am,"3700 block of 1st Ave so ,Minneapolis,MN",44.935795,-93.27693,8,Southwest,King Field,5,1,Westminster
TOW,-93.279336,44.967717,153,02/13/2019 01:04am,"100 BLOCK OF 15TH ST W,Minneapolis,MN",44.967717,-93.279336,7,Central,Loring Park,3,1,Westminster
TOW,-93.279334,44.968799,154,02/13/2019 01:04am,"1396 lasalle av,Minneapolis,MN",44.968799,-93.279334,7,Central,Loring Park,3,1,Westminster
TOW,-93.27136,45.003857,155,02/13/2019 01:05am,"1598 Marshall st ne,Minneapolis,MN",45.003857,-93.27136,3,Northeast,Sheridan,2,1,Westminster
TOW,-93.27693,44.935795,156,02/13/2019 01:06am,"3700 block of 1st Ave so ,Minneapolis,MN",44.935795,-93.27693,8,Southwest,King Field,5,1,Westminster
TOW,-93.296187,44.944583,157,02/13/2019 01:06am,"3200 Fremont Ave,Minneapolis,MN",44.944583,-93.296187,10,Calhoun Isle,CARAG,5,1,Westminster
TOW,-93.243156,44.96094,158,02/13/2019 01:07am,"2199 MINNEHAHA AVE ,Minneapolis,MN",44.96094,-93.243156,6,Longfellow,Seward,4,1,Westminster
TOW,-93.272881,45.01611,159,02/13/2019 01:08am,"2630 Mashall st ne,Minneapolis,MN",45.01611,-93.272881,1,Northeast,Marshall Terrace,2,1,Westminster
TOW,-93.275862,44.97569,160,02/13/2019 01:10am,"2221 1 9 ST S,Minneapolis,MN",44.97569,-93.275862,7,Central,Downtown West,3,1,Westminster
TOW,-93.228469,45.013347,161,02/13/2019 01:11am,"2500 Mckinley st ne,Minneapolis,MN",45.013347,-93.228469,1,Northeast,Audubon Park,2,1,Westminster
TOW,-93.279494,44.95786,162,02/13/2019 01:11am,"2435 BLAISDELL AVE S,Minneapolis,MN",44.95786,-93.279494,10,Powderhorn,Whittier,3,1,Westminster
TOW,-93.295589,45.014955,163,02/13/2019 01:12am,"3298 fremont ave n,Minneapolis,MN",45.014955,-93.295589,4,Camden,Folwell,1,1,Westminster
TOW,-93.295196,45.006139,164,02/13/2019 01:13am,"2600 block of Fremont avenue North,Minneapolis,MN",45.006139,-93.295196,5,Near North,Jordan,1,1,Westminster
TOW,-93.279177,44.961544,165,02/13/2019 01:14am,"2109 blaisdell Ave s ,Minneapolis,MN",44.961544,-93.279177,10,Powderhorn,Whittier,3,1,Westminster
TOW,-93.242523,45.01332,166,02/13/2019 01:14am,"1151 Lowry ave ne,Minneapolis,MN",45.01332,-93.242523,1,Northeast,Audubon Park,2,1,Westminster
TOW,-93.227082,44.948377,167,02/13/2019 01:16am,"3000 31st av s,Minneapolis,MN",44.948377,-93.227082,2,Longfellow,Longfellow,4,1,Westminster
TOW,-93.294511,44.999274,168,02/13/2019 01:17am,"1106 west Broadway ,Minneapolis,MN",44.999274,-93.294511,5,Near North,Jordan,1,1,Westminster
TOW,-93.229087,45.013089,169,02/13/2019 01:17am,"2210 lowry ave ne,Minneapolis,MN",45.013089,-93.229087,1,Northeast,Windom Park,2,1,Westminster
TOW,-93.279304,44.960593,170,02/13/2019 01:18am,"2201 blaisdell ,Minneapolis,MN",44.960593,-93.279304,10,Powderhorn,Whittier,3,1,Westminster
TOW,-93.279187,44.958192,171,02/13/2019 01:18am,"2427 Blaisdell Ave ,Minneapolis,MN",44.958192,-93.279187,10,Powderhorn,Whittier,3,1,Westminster
TOW,-93.279494,44.95786,172,02/13/2019 01:19am,"2435 BLAISDELL AVE ,Minneapolis,MN",44.95786,-93.279494,10,Powderhorn,Whittier,3,1,Westminster
TOW,-93.227082,44.948377,173,02/13/2019 01:19am,"3000 31st av s,Minneapolis,MN",44.948377,-93.227082,2,Longfellow,Longfellow,4,1,Westminster
TOW,-93.227082,44.948377,174,02/13/2019 01:19am,"3000 31st ave,Minneapolis,MN",44.948377,-93.227082,2,Longfellow,Longfellow,4,1,Westminster
TOW,-93.228429,45.017014,175,02/13/2019 01:20am,"2700 Mckinley st ne,Minneapolis,MN",45.017014,-93.228429,1,Northeast,Audubon Park,2,1,Westminster
TOW,-93.220409,44.926932,176,02/13/2019 01:22am,"3600 42nd st,Minneapolis,MN",44.926932,-93.220409,12,Longfellow,Hiawatha,6,1,Westminster
TOW,-93.276871,44.937564,177,02/13/2019 01:22am,"3600 1st st south,Minneapolis,MN",44.937564,-93.276871,8,Southwest,King Field,5,1,Westminster
TOW,-93.278765,44.967978,178,02/13/2019 01:28am,"18 W 15TH ,Minneapolis,MN",44.967978,-93.278765,7,Central,Loring Park,3,1,Westminster
TOW,-93.228718,44.972551,179,02/13/2019 01:29am,"610 Delaware st se,Minneapolis,MN",44.972551,-93.228718,2,University,University of Minnesota,4,1,Westminster
TOW,-93.279275,44.957628,180,02/13/2019 01:32am,"2451 Blaisdell,Minneapolis,MN",44.957628,-93.279275,10,Powderhorn,Whittier,3,1,Westminster
TOW,-93.278765,44.967978,181,02/13/2019 01:33am,"18 15 St W,Minneapolis,MN",44.967978,-93.278765,7,Central,Loring Park,3,1,Westminster
TOW,-93.307845,44.996585,182,02/13/2019 01:33am,"1700 Penn Ave n,Minneapolis,MN",44.996585,-93.307845,5,Near North,Willard - Hay,1,1,Westminster
TOW,-93.27122,45.005189,183,02/13/2019 01:35am,"1701 marshall st ne,Minneapolis,MN",45.005189,-93.27122,3,Northeast,Sheridan,2,1,Westminster
TOW,-93.244376,44.966969,184,02/13/2019 01:36am,"620 20TH AVE S,Minneapolis,MN",44.966969,-93.244376,6,University,Cedar Riverside,4,1,Westminster
TOW,-93.279629,44.95626,185,02/13/2019 01:39am,"2531 BLAIDELL AVE,Minneapolis,MN",44.95626,-93.279629,10,Powderhorn,Whittier,3,1,Westminster
TOW,-93.270818,45.00248,186,02/13/2019 01:39am,"1435 marshall avenue ne,Minneapolis,MN",45.00248,-93.270818,3,Northeast,Sheridan,2,1,Westminster
TOW,-93.234829,44.980883,187,02/13/2019 01:40am,"1416 5th st se,Minneapolis,MN",44.980883,-93.234829,3,University,Marcy Holmes,4,1,Westminster
TOW,-93.307993,44.985041,188,02/13/2019 01:41am,"620 penn ave n ,Minneapolis,MN",44.985041,-93.307993,5,Near North,Near - North,1,1,Westminster
TOW,-93.307919,45.010386,189,02/13/2019 01:42am,"2922 Penn Ave N,Minneapolis,MN",45.010386,-93.307919,5,Near North,Jordan,1,1,Westminster
TOW,-93.244366,44.966813,190,02/13/2019 01:46am,"626 20th ave s,Minneapolis,MN",44.966813,-93.244366,6,University,Cedar Riverside,4,1,Westminster
TOW,-93.277027,44.944807,191,02/13/2019 01:47am,"3200 1st ave so ,Minneapolis,MN",44.944807,-93.277027,8,Powderhorn,Lyndale,5,1,Westminster
TOW,-93.279282,44.956094,192,02/13/2019 01:47am,"2537 BLAISDELL AVE S,Minneapolis,MN",44.956094,-93.279282,10,Powderhorn,Whittier,3,1,Westminster
TOW,-93.307919,45.010386,193,02/13/2019 01:48am,"2922 penn ave n ,Minneapolis,MN",45.010386,-93.307919,5,Near North,Jordan,1,1,Westminster
TOW,-93.237754,45.020436,194,02/13/2019 01:49am,"1500 block 29th avenue ne,Minneapolis,MN",45.020436,-93.237754,1,Northeast,Audubon Park,2,1,Westminster
TOW,-93.30793,45.010823,195,02/13/2019 01:51am,"2938 Penn Ave n,Minneapolis,MN",45.010823,-93.30793,5,Near North,Jordan,1,1,Westminster
TOW,-93.26609,44.967821,196,02/13/2019 01:52am,"629 15 st e,Minneapolis,MN",44.967821,-93.26609,6,Central,Elliot Park,3,1,Westminster
TOW,-93.279187,44.958192,197,02/13/2019 01:53am,"2427 BLAISDELL AVE ,Minneapolis,MN",44.958192,-93.279187,10,Powderhorn,Whittier,3,1,Westminster
TOW,-93.236486,45.020447,198,02/13/2019 01:53am,"1600 block of 29th avenue ne,Minneapolis,MN",45.020447,-93.236486,1,Northeast,Audubon Park,2,1,Westminster
TOW,-93.276605,44.941358,199,02/13/2019 01:53am,"3398 1ST AVE S,Minneapolis,MN",44.941358,-93.276605,8,Powderhorn,Lyndale,5,1,Westminster
TOW,-93.279125,44.958339,200,02/13/2019 01:54am,"2423 BLAISDELL AVE S,Minneapolis,MN",44.958339,-93.279125,10,Powderhorn,Whittier,3,1,Westminster
TOW,-93.307887,45.015721,201,02/13/2019 01:56am,"3322 Penn Ave n ,Minneapolis,MN",45.015721,-93.307887,4,Camden,Folwell,1,1,Westminster
TOW,-93.277027,44.944807,202,02/13/2019 01:57am,"3200 BLOCK 1ST AVE S,Minneapolis,MN",44.944807,-93.277027,8,Powderhorn,Lyndale,5,1,Westminster
TOW,-93.277027,44.944807,203,02/13/2019 02:00am,"3200 1ST AVE S,Minneapolis,MN",44.944807,-93.277027,8,Powderhorn,Lyndale,5,1,Westminster
TOW,-93.276673,44.946668,204,02/13/2019 02:00am,"3100 BLOCK 1ST AVE N,Minneapolis,MN",44.946668,-93.276673,8,Powderhorn,Lyndale,5,1,Westminster
TOW,-93.22407,44.97118,205,02/13/2019 02:01am,"1000 block of Essex st se,Minneapolis,MN",44.97118,-93.22407,2,University,Prospect Park - East River Road,4,1,Westminster
TOW,-93.277027,44.944807,206,02/13/2019 02:01am,"3200 1st ave s,Minneapolis,MN",44.944807,-93.277027,8,Powderhorn,Lyndale,5,1,Westminster
TOW,-93.229268,44.941987,207,02/13/2019 02:01am,"3337 minnehaha ave,Minneapolis,MN",44.941987,-93.229268,2,Longfellow,Longfellow,6,1,Westminster
TOW,-93.279288,44.95345,208,02/13/2019 02:03am,"2705 BLAISDELL AVE,Minneapolis,MN",44.95345,-93.279288,10,Powderhorn,Whittier,3,1,Westminster
TOW,-93.279083,44.95488,209,02/13/2019 02:04am,"2609 Blaisdell Ave,Minneapolis,MN",44.95488,-93.279083,10,Powderhorn,Whittier,3,1,Westminster
TOW,-93.308864,45.015994,210,02/13/2019 02:04am,"3333 Penn Ave n,Minneapolis,MN",45.015994,-93.308864,4,Camden,Cleveland,1,1,Westminster
TOW,-93.276975,44.97643,211,02/13/2019 02:08am,"9 St & Hennepin Ave,Minneapolis,MN",44.97643,-93.276975,7,Central,Downtown West,3,1,Westminster
TOW,-93.237754,45.020436,212,02/13/2019 02:09am,"1500 block 29th avenue ne,Minneapolis,MN",45.020436,-93.237754,1,Northeast,Audubon Park,2,1,Westminster
TOW,-93.231671,44.944209,213,02/13/2019 02:09am,"3210 minnehaha,Minneapolis,MN",44.944209,-93.231671,9,Longfellow,Longfellow,6,1,Westminster
TOW,-93.266165,45.013183,214,02/13/2019 02:11am,"2500 2nd street ne,Minneapolis,MN",45.013183,-93.266165,1,Northeast,Marshall Terrace,2,1,Westminster
TOW,-93.229082,44.941783,215,02/13/2019 02:12am,"3347 minnehaha,Minneapolis,MN",44.941783,-93.229082,2,Longfellow,Longfellow,6,1,Westminster
TOW,-93.308529,45.017372,216,02/13/2019 02:14am,"3415 Penn Ave N,Minneapolis,MN",45.017372,-93.308529,4,Camden,Cleveland,1,1,Westminster
TOW,-93.224365,44.935162,217,02/13/2019 02:16am,"3721 minnehaha av s,Minneapolis,MN",44.935162,-93.224365,12,Longfellow,Howe,6,1,Westminster
TOW,-93.227341,44.939973,218,02/13/2019 02:16am,"3442 31st Avenue South,Minneapolis,MN",44.939973,-93.227341,12,Longfellow,Howe,6,1,Westminster
TOW,-93.221195,44.970348,219,02/13/2019 02:17am,"2600 essex st se,Minneapolis,MN",44.970348,-93.221195,2,University,Prospect Park - East River Road,4,1,Westminster
TOW,-93.279329,44.953233,220,02/13/2019 02:19am,"2717 BLAISDELL AVE S,Minneapolis,MN",44.953233,-93.279329,10,Powderhorn,Whittier,3,1,Westminster
TOW,-93.227197,44.938119,221,02/13/2019 02:19am,"3552 minnehaha av s,Minneapolis,MN",44.938119,-93.227197,12,Longfellow,Howe,6,1,Westminster
TOW,-93.244324,44.965825,222,02/13/2019 02:21am,"720 20TH AVE S,Minneapolis,MN",44.965825,-93.244324,6,University,Cedar Riverside,4,1,Westminster
TOW,-93.279286,44.952638,223,02/13/2019 02:22am,"2743 BLAISDELL AVE S,Minneapolis,MN",44.952638,-93.279286,10,Powderhorn,Whittier,3,1,Westminster
TOW,-93.264843,44.978991,224,02/13/2019 02:22am,"301 3RD ST S,Minneapolis,MN",44.978991,-93.264843,3,Central,Downtown West,3,1,Westminster
TOW,-93.239487,44.946239,225,02/13/2019 02:23am,"2231 31st st e,Minneapolis,MN",44.946239,-93.239487,9,Powderhorn,Corcoran,6,1,Westminster
TOW,-93.284184,44.975971,226,02/13/2019 02:23am,"100 block of 15 st s,Minneapolis,MN",44.975971,-93.284184,5,Central,North Loop,3,1,Westminster
TOW,-93.307978,45.021386,227,02/13/2019 02:25am,"3628 penn ave n ,Minneapolis,MN",45.021386,-93.307978,4,Camden,Folwell,1,1,Westminster
TOW,-93.307962,45.01965,228,02/13/2019 02:27am,"3534 PENN AVE N ,Minneapolis,MN",45.01965,-93.307962,4,Camden,Folwell,1,1,Westminster
TOW,-93.287293,44.971736,229,02/13/2019 02:28am,"1700 HENNEPIN AVE ,Minneapolis,MN",44.971736,-93.287293,7,Central,Loring Park,3,1,Westminster
TOW,-93.307937,45.01841,230,02/13/2019 02:29am,"3454 PENN AVE N ,Minneapolis,MN",45.01841,-93.307937,4,Camden,Folwell,1,1,Westminster
TOW,-93.259321,44.989704,231,02/13/2019 02:30am,"1-99 2nd st ne,Minneapolis,MN",44.989704,-93.259321,3,Northeast,St. Anthony West,2,1,Westminster
TOW,-93.276673,44.946668,232,02/13/2019 02:32am,"3100 1st. Ave s,Minneapolis,MN",44.946668,-93.276673,8,Powderhorn,Lyndale,5,1,Westminster
TOW,-93.263333,44.943326,233,02/13/2019 02:33am,"728 e33rd st,Minneapolis,MN",44.943326,-93.263333,9,Powderhorn,Central,5,1,Westminster
TOW,-93.259321,44.989704,234,02/13/2019 02:33am,"1-99 2nd st ne,Minneapolis,MN",44.989704,-93.259321,3,Northeast,St. Anthony West,2,1,Westminster
TOW,-93.261859,45.010139,235,02/13/2019 02:36am,"2200 4th street ne,Minneapolis,MN",45.010139,-93.261859,1,Northeast,Holland,2,1,Westminster
TOW,-93.279308,44.95287,236,02/13/2019 02:37am,"2725 BLAISDELL AVE ,Minneapolis,MN",44.95287,-93.279308,10,Powderhorn,Whittier,3,1,Westminster
TOW,-93.244232,44.966241,237,02/13/2019 02:37am,"708 20th ave s,Minneapolis,MN",44.966241,-93.244232,6,University,Cedar Riverside,4,1,Westminster
TOW,-93.261593,45.010022,238,02/13/2019 02:39am,"2201 4th street ne,Minneapolis,MN",45.010022,-93.261593,1,Northeast,Holland,2,1,Westminster
TOW,-93.308783,45.029313,239,02/13/2019 02:40am,"4059 penn ave n ,Minneapolis,MN",45.029313,-93.308783,4,Camden,Victory,1,1,Westminster
TOW,-93.303435,44.981416,240,02/13/2019 02:43am,"1815 4th ave n ,Minneapolis,MN",44.981416,-93.303435,5,Near North,Harrison,3,1,Westminster
TOW,-93.276657,44.944962,241,02/13/2019 02:43am,"3198-3100 1 Av s,Minneapolis,MN",44.944962,-93.276657,8,Powderhorn,Lyndale,5,1,Westminster
TOW,-93.281853,44.994361,242,02/13/2019 02:44am,"1501 washington street ne,Minneapolis,MN",44.994361,-93.281853,5,Near North,Near - North,1,1,Westminster
TOW,-93.311691,44.99857,243,02/13/2019 02:46am,"2423 Golden Valley Road,Minneapolis,MN",44.99857,-93.311691,5,Near North,Willard - Hay,1,1,Westminster
TOW,-93.276673,44.946668,244,02/13/2019 02:46am,"3100 1ST AVE S,Minneapolis,MN",44.946668,-93.276673,8,Powderhorn,Lyndale,5,1,Westminster
TOW,-93.265207,44.948394,245,02/13/2019 02:47am,"2989-2800 BLOCK OF PARK AVE,Minneapolis,MN",44.948394,-93.265207,6,Phillips,Phillips West,3,1,Westminster
TOW,-93.281853,44.994361,246,02/13/2019 02:48am,"1501 washington St Ne,Minneapolis,MN",44.994361,-93.281853,5,Near North,Near - North,1,1,Westminster
TOW,-93.22408,44.935132,247,02/13/2019 02:49am,"3725 minnehaha ave,Minneapolis,MN",44.935132,-93.22408,12,Longfellow,Howe,6,1,Westminster
TOW,-93.261534,45.014902,248,02/13/2019 02:51am,"2598 4 th sdtreet ne,Minneapolis,MN",45.014902,-93.261534,1,Northeast,Holland,2,1,Westminster
TOW,-93.267331,44.968786,249,02/13/2019 02:53am,"1401 Portland av s ,Minneapolis,MN",44.968786,-93.267331,7,Central,Elliot Park,3,1,Westminster
TOW,-93.261534,45.014902,250,02/13/2019 02:53am,"2598 4th street ne,Minneapolis,MN",45.014902,-93.261534,1,Northeast,Holland,2,1,Westminster
TOW,-93.265616,44.949939,251,02/13/2019 02:55am,"2900 Park Ave s,Minneapolis,MN",44.949939,-93.265616,6,Phillips,Phillips West,3,1,Westminster
TOW,-93.311691,44.99857,252,02/13/2019 02:56am,"2423 Golden valley road,Minneapolis,MN",44.99857,-93.311691,5,Near North,Willard - Hay,1,1,Westminster
TOW,-93.265541,44.964577,253,02/13/2019 02:57am,"1814 park s,Minneapolis,MN",44.964577,-93.265541,6,Phillips,Ventura Village,3,1,Westminster
TOW,-93.261584,45.008561,254,02/13/2019 03:02am,"2001 4th street ne,Minneapolis,MN",45.008561,-93.261584,1,Northeast,Holland,2,1,Westminster
TOW,-93.261859,45.010139,255,02/13/2019 03:05am,"2200 4th street ne,Minneapolis,MN",45.010139,-93.261859,1,Northeast,Holland,2,1,Westminster
TOW,-93.284422,44.914159,256,02/13/2019 03:09am,"49th and Grand ave ,Minneapolis,MN",44.914159,-93.284422,11,Southwest,Tangletown,5,1,Westminster
TOW,-93.298074,45.035242,257,02/13/2019 03:10am,"1421 44th ave n ,Minneapolis,MN",45.035242,-93.298074,4,Camden,Webber - Camden,1,1,Westminster
TOW,-93.297759,45.035251,258,02/13/2019 03:13am,"1415 44th ave n ,Minneapolis,MN",45.035251,-93.297759,4,Camden,Webber - Camden,1,1,Westminster
TOW,-93.244542,44.966131,259,02/13/2019 03:15am,"712 20th ave s,Minneapolis,MN",44.966131,-93.244542,6,University,Cedar Riverside,4,1,Westminster
TOW,-93.220052,44.929428,260,02/13/2019 03:16am,"4027 Minnehaha Avenue South,Minneapolis,MN",44.929428,-93.220052,12,Longfellow,Hiawatha,6,1,Westminster
TOW,-93.223153,44.933641,261,02/13/2019 03:18am,"3819 Minnehaha Avenue South,Minneapolis,MN",44.933641,-93.223153,12,Longfellow,Howe,6,1,Westminster
TOW,-93.265207,44.948377,262,02/13/2019 03:19am,"2998-2900 PARK AVE ,Minneapolis,MN",44.948377,-93.265207,6,Phillips,Phillips West,3,1,Westminster
TOW,-93.312885,44.998961,263,02/13/2019 03:19am,"2518 Golden Valley Road,Minneapolis,MN",44.998961,-93.312885,5,Near North,Willard - Hay,1,1,Westminster
TOW,-93.276673,44.946668,264,02/13/2019 03:20am,"E 31 ST & 1st Ave S. ,Minneapolis,MN",44.946668,-93.276673,8,Powderhorn,Lyndale,5,1,Westminster
TOW,-93.315275,44.99863,265,02/13/2019 03:21am,"2711 Golden valley road,Minneapolis,MN",44.99863,-93.315275,5,Near North,Willard - Hay,1,1,Westminster
TOW,-93.268013,44.9553,266,02/13/2019 03:23am,"2600 block of Portland Ave s,Minneapolis,MN",44.9553,-93.268013,6,Phillips,Phillips West,3,1,Westminster
TOW,-93.304339,44.980034,267,02/13/2019 03:25am,"1840 3RD AVE ,Minneapolis,MN",44.980034,-93.304339,5,Near North,Harrison,3,1,Westminster
TOW,-93.265616,44.949939,268,02/13/2019 03:25am,"2900 Park Ave S,Minneapolis,MN",44.949939,-93.265616,6,Phillips,Phillips West,3,1,Westminster
TOW,-93.280254,45.005896,269,02/13/2019 03:26am,"2598 2nd st n,Minneapolis,MN",45.005896,-93.280254,5,Near North,Hawthorne,1,1,Westminster
TOW,-93.284352,44.93589,270,02/13/2019 03:26am,"37 ST & GRAND AVE,Minneapolis,MN",44.93589,-93.284352,8,Southwest,King Field,5,1,Westminster
TOW,-93.267703,44.953722,271,02/13/2019 03:26am,"2700 block of Portland Ave s,Minneapolis,MN",44.953722,-93.267703,6,Phillips,Phillips West,3,1,Westminster
TOW,-93.273028,44.964343,272,02/13/2019 03:28am,"1830 3 ave s,Minneapolis,MN",44.964343,-93.273028,6,Central,Steven's Square - Loring Heights,3,1,Westminster
TOW,-93.284336,44.937686,273,02/13/2019 03:29am,"36 ST & GRAND AVE S,Minneapolis,MN",44.937686,-93.284336,8,Southwest,King Field,5,1,Westminster
TOW,-93.244324,44.965825,274,02/13/2019 03:31am,"720 20th ave s,Minneapolis,MN",44.965825,-93.244324,6,University,Cedar Riverside,4,1,Westminster
TOW,-93.265207,44.948377,275,02/13/2019 03:33am,"2998 Park av ,Minneapolis,MN",44.948377,-93.265207,6,Phillips,Phillips West,3,1,Westminster
TOW,-93.289665,45.032373,276,02/13/2019 03:33am,"4247 webber pkwy,Minneapolis,MN",45.032373,-93.289665,4,Camden,Webber - Camden,1,1,Westminster
TOW,-93.284293,44.94658,277,02/13/2019 03:33am,"3101-3199 Grand AV S,Minneapolis,MN",44.94658,-93.284293,8,Powderhorn,Lyndale,5,1,Westminster
TOW,-93.257057,44.989009,278,02/13/2019 03:34am,"300 1st ave ne,Minneapolis,MN",44.989009,-93.257057,3,University,Nicollet Island - East Bank,2,1,Westminster
TOW,-93.257796,44.98876,279,02/13/2019 03:37am,"220 1 avenue ne,Minneapolis,MN",44.98876,-93.257796,3,University,Nicollet Island - East Bank,2,1,Westminster
TOW,-93.244324,44.965825,280,02/13/2019 03:38am,"720 20th ave s,Minneapolis,MN",44.965825,-93.244324,6,University,Cedar Riverside,4,1,Westminster
TOW,-93.316752,44.999098,281,02/13/2019 03:44am,"2818 Golden valley road,Minneapolis,MN",44.999098,-93.316752,5,Near North,Willard - Hay,1,1,Westminster
TOW,-93.289665,45.032373,282,02/13/2019 03:44am,"4247 Webber parkway ,Minneapolis,MN",45.032373,-93.289665,4,Camden,Webber - Camden,1,1,Westminster
TOW,-93.286973,45.044423,283,02/13/2019 03:44am,"49th and grand ,Minneapolis,MN",45.044423,-93.286973,4,Camden,Lind - Bohanon,1,1,Westminster
TOW,-93.284656,44.933824,284,02/13/2019 03:46am,"3599 grand ,Minneapolis,MN",44.933824,-93.284656,8,Southwest,King Field,5,1,Westminster
TOW,-93.293005,45.03478,285,02/13/2019 03:47am,"4330 Webber parkway ,Minneapolis,MN",45.03478,-93.293005,4,Camden,Webber - Camden,1,1,Westminster
TOW,-93.27249,44.963776,286,02/13/2019 03:53am,"1905 3RD AVE S,Minneapolis,MN",44.963776,-93.27249,6,Central,Steven's Square - Loring Heights,3,1,Westminster
TOW,-93.256575,44.98715,287,02/13/2019 03:54am,"1 2nd street ne,Minneapolis,MN",44.98715,-93.256575,3,University,Nicollet Island - East Bank,4,1,Westminster
TOW,-93.261883,45.013294,288,02/13/2019 03:57am,"2500 block 4th street ne,Minneapolis,MN",45.013294,-93.261883,1,Northeast,Holland,2,1,Westminster
TOW,-93.27246,44.961445,289,02/13/2019 03:59am,"2115 3RD AVE S,Minneapolis,MN",44.961445,-93.27246,10,Powderhorn,Whittier,3,1,Westminster
TOW,-93.257016,45.010399,290,02/13/2019 04:00am,"2200 block of washington street ne,Minneapolis,MN",45.010399,-93.257016,1,Northeast,Holland,2,1,Westminster
TOW,-93.272381,44.961611,291,02/13/2019 04:01am,"2101 3rd ave s,Minneapolis,MN",44.961611,-93.272381,10,Powderhorn,Whittier,3,1,Westminster
TOW,-93.317448,44.999133,292,02/13/2019 04:04am,"2900 Golden valley road,Minneapolis,MN",44.999133,-93.317448,5,Near North,Willard - Hay,1,1,Westminster
TOW,-93.231106,44.963994,293,02/13/2019 04:09am,"2806 riverside ave,Minneapolis,MN",44.963994,-93.231106,2,Longfellow,Seward,4,1,Westminster
TOW,-93.278459,44.969516,294,02/13/2019 04:18am,"1350 Nicollet Ave,Minneapolis,MN",44.969516,-93.278459,7,Central,Loring Park,3,1,Westminster
TOW,-93.27781,44.969866,295,02/13/2019 04:21am,"1386 NICOLLET MALL,Minneapolis,MN",44.969866,-93.27781,7,Central,Loring Park,3,1,Westminster
TOW,-93.252668,45.010136,296,02/13/2019 04:22am,"2200 MONROE ST NE,Minneapolis,MN",45.010136,-93.252668,1,Northeast,Holland,2,1,Westminster
TOW,-93.21867,44.926955,297,02/13/2019 04:23am,"42ND & MINNEHAHA AVE S,Minneapolis,MN",44.926955,-93.21867,12,Longfellow,Hiawatha,6,1,Westminster
TOW,-93.257553,45.00523,298,02/13/2019 04:24am,"1699 WASHINGTON ST NE,Minneapolis,MN",45.00523,-93.257553,1,Northeast,Sheridan,2,1,Westminster
TOW,-93.310116,44.998616,299,02/13/2019 04:25am,"2315 GOLDEN VALLEY RD,Minneapolis,MN",44.998616,-93.310116,5,Near North,Willard - Hay,1,1,Westminster
TOW,-93.212853,44.941478,300,02/13/2019 04:27am,"4190 E 34TH ST ,Minneapolis,MN",44.941478,-93.212853,2,Longfellow,Cooper,6,1,Westminster
TOW,-93.284752,44.921247,301,02/13/2019 04:36am,"4500 GRAND AVE S,Minneapolis,MN",44.921247,-93.284752,8,Southwest,King Field,5,1,Westminster
TOW,-93.288134,44.946599,302,02/13/2019 04:39am,"700 block of 31st street East,Minneapolis,MN",44.946599,-93.288134,10,Calhoun Isle,CARAG,5,1,Westminster
TOW,-93.284374,44.934118,303,02/13/2019 04:39am,"3798 GRAND AVE S,Minneapolis,MN",44.934118,-93.284374,8,Southwest,King Field,5,1,Westminster
TOW,-93.278627,44.969651,304,02/13/2019 04:44am,"1350 NICOLLET AVE S,Minneapolis,MN",44.969651,-93.278627,7,Central,Loring Park,3,1,Westminster
TOW,-93.278627,44.969651,305,02/13/2019 04:51am,"1350 NICOLLET AVE S,Minneapolis,MN",44.969651,-93.278627,7,Central,Loring Park,3,1,Westminster
TOW,-93.283376,45.012225,306,02/13/2019 08:13am,"3122 N 3rd St ,Minneapolis,MN",45.012225,-93.283376,5,Near North,Hawthorne,1,2,Westminster
TOW,-93.290887,44.965678,307,02/13/2019 08:17am,"1786 Bryant ave s ,Minneapolis,MN",44.965678,-93.290887,7,Calhoun Isle,Lowry Hill,3,2,Westminster
TOW,-93.255279,44.939,308,02/13/2019 08:25am,"3514 14th ave s,Minneapolis,MN",44.939,-93.255279,9,Powderhorn,Powderhorn Park,6,2,Westminster
TOW,-93.284648,45.013901,309,02/13/2019 08:26am,"3222 4th st n,Minneapolis,MN",45.013901,-93.284648,4,Camden,McKinley,1,2,Westminster
TOW,-93.284665,45.013846,310,02/13/2019 08:26am,"3220 4th st n ,Minneapolis,MN",45.013846,-93.284665,4,Camden,McKinley,1,2,Westminster
TOW,-93.255239,44.938637,311,02/13/2019 08:30am,"3524 14th Avenue South,Minneapolis,MN",44.938637,-93.255239,9,Powderhorn,Powderhorn Park,6,2,Westminster
TOW,-93.301596,45.011772,312,02/13/2019 08:30am,"3010 Knox ave, Minneapolis,MN",45.011772,-93.301596,5,Near North,Jordan,1,2,Westminster
TOW,-93.284631,45.008273,313,02/13/2019 08:36am,"2732 4th st n ,Minneapolis,MN",45.008273,-93.284631,5,Near North,Hawthorne,1,2,Westminster
TOW,-93.280491,44.968938,314,02/13/2019 08:37am,"120 14TH ST W,Minneapolis,MN",44.968938,-93.280491,7,Central,Loring Park,3,2,Westminster
TOW,-93.250248,44.983353,315,02/13/2019 08:40am,"416 2nd Ave SE,Minneapolis,MN",44.983353,-93.250248,3,University,Marcy Holmes,4,2,Westminster
TOW,-93.25253,44.987421,316,02/13/2019 08:43am,"412 2nd Ave SE,Minneapolis,MN",44.987421,-93.25253,3,University,Marcy Holmes,4,2,Westminster
TOW,-93.284933,45.007599,317,02/13/2019 08:44am,"2734 4th St. N. ,Minneapolis,MN",45.007599,-93.284933,5,Near North,Hawthorne,1,2,Westminster
TOW,-93.289854,44.985597,318,02/13/2019 08:44am,"720 Aldrich avenue North,Minneapolis,MN",44.985597,-93.289854,5,Near North,Sumner - Glenwood,1,2,Westminster
TOW,-93.290884,44.965203,319,02/13/2019 08:48am,"1804 Bryant ave s,Minneapolis,MN",44.965203,-93.290884,7,Calhoun Isle,Lowry Hill,3,2,Westminster
TOW,-93.260565,44.989942,320,02/13/2019 08:55am,"106 3rd ave ne,Minneapolis,MN",44.989942,-93.260565,3,Northeast,St. Anthony West,2,2,Westminster
TOW,-93.280643,44.968798,321,02/13/2019 08:58am,"112 14TH ST W,Minneapolis,MN",44.968798,-93.280643,7,Central,Loring Park,3,2,Westminster
TOW,-93.252077,44.993075,322,02/13/2019 08:58am,"708 3rd ave ne,Minneapolis,MN",44.993075,-93.252077,3,Northeast,St. Anthony East,2,2,Westminster
TOW,-93.289882,44.985444,323,02/13/2019 08:59am,"723 Aldrich avenue North,Minneapolis,MN",44.985444,-93.289882,5,Near North,Sumner - Glenwood,1,2,Westminster
TOW,-93.280639,44.968798,324,02/13/2019 09:01am,"110 14TH ST W,Minneapolis,MN",44.968798,-93.280639,7,Central,Loring Park,3,2,Westminster
TOW,-93.250139,44.983242,325,02/13/2019 09:02am,"424 2nd ave se,Minneapolis,MN",44.983242,-93.250139,3,University,Marcy Holmes,4,2,Westminster
TOW,-93.284616,45.005555,326,02/13/2019 09:08am,"2520 4th St n,Minneapolis,MN",45.005555,-93.284616,5,Near North,Hawthorne,1,2,Westminster
TOW,-93.286182,45.001824,327,02/13/2019 09:09am,"2208 6th st n ,Minneapolis,MN",45.001824,-93.286182,5,Near North,Hawthorne,1,2,Westminster
TOW,-93.25519,44.923997,328,02/13/2019 09:10am,"4332 14th ave so,Minneapolis,MN",44.923997,-93.25519,11,Nokomis,Northrop,6,2,Westminster
TOW,-93.303683,44.947433,329,02/13/2019 09:10am,"3024 James ave s,Minneapolis,MN",44.947433,-93.303683,10,Calhoun Isle,ECCO,5,2,Westminster
TOW,-93.303697,44.947642,330,02/13/2019 09:13am,"3018 James ave s,Minneapolis,MN",44.947642,-93.303697,10,Calhoun Isle,ECCO,5,2,Westminster
TOW,-93.29212,44.963978,331,02/13/2019 09:13am,"1910 Colfax Ave s ,Minneapolis,MN",44.963978,-93.29212,7,Calhoun Isle,Lowry Hill,3,2,Westminster
TOW,-93.285976,45.012573,332,02/13/2019 09:15am,"3114 6th st n,Minneapolis,MN",45.012573,-93.285976,5,Near North,Hawthorne,1,2,Westminster
TOW,-93.290295,44.985604,333,02/13/2019 09:17am,"730 Aldrich avenue North,Minneapolis,MN",44.985604,-93.290295,5,Near North,Sumner - Glenwood,1,2,Westminster
TOW,-93.286227,45.023012,334,02/13/2019 09:19am,"3724 6th st n ,Minneapolis,MN",45.023012,-93.286227,4,Camden,McKinley,1,2,Westminster
TOW,-93.244435,44.98985,335,02/13/2019 09:27am,"816 5th Ave SE ,Minneapolis,MN",44.98985,-93.244435,3,University,Marcy Holmes,4,2,Westminster
TOW,-93.290759,44.988181,336,02/13/2019 09:31am,"1000 aldrich ave n,Minneapolis,MN",44.988181,-93.290759,5,Near North,Sumner - Glenwood,1,2,Westminster
TOW,-93.292209,44.96372,337,02/13/2019 09:31am,"1916 Colfax Ave s ,Minneapolis,MN",44.96372,-93.292209,7,Calhoun Isle,Lowry Hill,3,2,Westminster
TOW,-93.246333,44.93798,338,02/13/2019 09:31am,"3542 longfellow,Minneapolis,MN",44.93798,-93.246333,9,Powderhorn,Corcoran,6,2,Westminster
TOW,-93.303408,44.944735,339,02/13/2019 09:33am,"James ave s and W 32nd St. ,Minneapolis,MN",44.944735,-93.303408,10,Calhoun Isle,ECCO,5,2,Westminster
TOW,-93.246315,44.935793,340,02/13/2019 09:33am,"3700 longfellow,Minneapolis,MN",44.935793,-93.246315,12,Powderhorn,Standish,6,2,Westminster
TOW,-93.250092,44.985665,341,02/13/2019 09:33am,"316 4th ave se,Minneapolis,MN",44.985665,-93.250092,3,University,Marcy Holmes,4,2,Westminster
TOW,-93.290777,44.988337,342,02/13/2019 09:33am,"1028 aldrich ave n,Minneapolis,MN",44.988337,-93.290777,5,Near North,Sumner - Glenwood,1,2,Westminster
TOW,-93.255294,44.935507,343,02/13/2019 09:34am,"3708 14th av s,Minneapolis,MN",44.935507,-93.255294,9,Powderhorn,Powderhorn Park,6,2,Westminster
TOW,-93.258346,44.992441,344,02/13/2019 09:34am,"326 4th ave ne,Minneapolis,MN",44.992441,-93.258346,3,Northeast,St. Anthony West,2,2,Westminster
TOW,-93.290194,44.986067,345,02/13/2019 09:35am,"728 Aldrich avenue North,Minneapolis,MN",44.986067,-93.290194,5,Near North,Sumner - Glenwood,1,2,Westminster
TOW,-93.258346,44.992441,346,02/13/2019 09:36am,"326 4th ave ne,Minneapolis,MN",44.992441,-93.258346,3,Northeast,St. Anthony West,2,2,Westminster
TOW,-93.25521,44.938137,347,02/13/2019 09:37am,"3538 14th av s,Minneapolis,MN",44.938137,-93.25521,9,Powderhorn,Powderhorn Park,6,2,Westminster
TOW,-93.251468,44.945376,348,02/13/2019 09:38am,"3136 16 th ave s,Minneapolis,MN",44.945376,-93.251468,9,Powderhorn,Powderhorn Park,6,2,Westminster
TOW,-93.246744,44.986904,349,02/13/2019 09:38am,"520 5th ave se,Minneapolis,MN",44.986904,-93.246744,3,University,Marcy Holmes,4,2,Westminster
TOW,-93.254104,44.943232,350,02/13/2019 09:38am,"3250 15th ave s,Minneapolis,MN",44.943232,-93.254104,9,Powderhorn,Powderhorn Park,6,2,Westminster
TOW,-93.28114,44.968506,351,02/13/2019 09:40am,"1308 spruce pl,Minneapolis,MN",44.968506,-93.28114,7,Central,Loring Park,3,2,Westminster
TOW,-93.234342,44.990245,352,02/13/2019 09:48am,"1078 12th ave se,Minneapolis,MN",44.990245,-93.234342,2,University,Como,4,2,Westminster
TOW,-93.290758,44.987954,353,02/13/2019 09:50am,"950 Aldrich avenue North,Minneapolis,MN",44.987954,-93.290758,5,Near North,Sumner - Glenwood,1,2,Westminster
TOW,-93.294697,44.963019,354,02/13/2019 09:50am,"1950 Emerson Ave S,Minneapolis,MN",44.963019,-93.294697,7,Calhoun Isle,Lowry Hill,3,2,Westminster
TOW,-93.286239,45.024075,355,02/13/2019 09:50am,"3800 6th st n ,Minneapolis,MN",45.024075,-93.286239,4,Camden,Webber - Camden,1,2,Westminster
TOW,-93.286216,45.022392,356,02/13/2019 09:52am,"3706 6th st n,Minneapolis,MN",45.022392,-93.286216,4,Camden,McKinley,1,2,Westminster
TOW,-93.234319,44.988641,357,02/13/2019 09:52am,"1026 12th ave se,Minneapolis,MN",44.988641,-93.234319,2,University,Como,4,2,Westminster
TOW,-93.30209,44.950096,358,02/13/2019 09:53am,"THE MALL / IRVING AVE S ,Minneapolis,MN",44.950096,-93.30209,7,Calhoun Isle,East Isles,3,2,Westminster
TOW,-93.289086,45.029133,359,02/13/2019 09:54am,"4050 Aldrich ave n ,Minneapolis,MN",45.029133,-93.289086,4,Camden,Webber - Camden,1,2,Westminster
TOW,-93.286239,45.022939,360,02/13/2019 09:54am,"3722 6th st n ,Minneapolis,MN",45.022939,-93.286239,4,Camden,McKinley,1,2,Westminster
TOW,-93.303708,44.946377,361,02/13/2019 09:56am,"3102 James Ave S, Minneapolis,MN",44.946377,-93.303708,10,Calhoun Isle,ECCO,5,2,Westminster
TOW,-93.23172,44.991731,362,02/13/2019 09:57am,"1126 14th ave se,Minneapolis,MN",44.991731,-93.23172,1,University,Como,2,2,Westminster
TOW,-93.244733,44.989444,363,02/13/2019 10:01am,"804 5th ave se,Minneapolis,MN",44.989444,-93.244733,3,University,Marcy Holmes,4,2,Westminster
TOW,-93.255508,44.933652,364,02/13/2019 10:01am,"3826 14th Avenue South,Minneapolis,MN",44.933652,-93.255508,8,Powderhorn,Bancroft,6,2,Westminster
TOW,-93.233322,44.993286,365,02/13/2019 10:01am,"1200 winter st ne,Minneapolis,MN",44.993286,-93.233322,1,University,Como,2,2,Westminster
TOW,-93.303664,44.945557,366,02/13/2019 10:02am,"3128 James ave s,Minneapolis,MN",44.945557,-93.303664,10,Calhoun Isle,ECCO,5,2,Westminster
TOW,-93.2552,44.938055,367,02/13/2019 10:04am,"3542 14th Avenue South,Minneapolis,MN",44.938055,-93.2552,9,Powderhorn,Powderhorn Park,6,2,Westminster
TOW,-93.243662,44.988971,368,02/13/2019 10:05am,"804 6th ave se,Minneapolis,MN",44.988971,-93.243662,3,University,Marcy Holmes,4,2,Westminster
TOW,-93.233309,44.993286,369,02/13/2019 10:06am,"1202 winter st ne,Minneapolis,MN",44.993286,-93.233309,1,University,Como,2,2,Westminster
TOW,-93.291051,44.99141,370,02/13/2019 10:06am,"706 Bryant avenue North,Minneapolis,MN",44.99141,-93.291051,5,Near North,Near - North,1,2,Westminster
TOW,-93.247904,44.985438,371,02/13/2019 10:06am,"402 5th ave se,Minneapolis,MN",44.985438,-93.247904,3,University,Marcy Holmes,4,2,Westminster
TOW,-93.294698,44.964086,372,02/13/2019 10:07am,"1906 Emerson ave s ,Minneapolis,MN",44.964086,-93.294698,7,Calhoun Isle,Lowry Hill,3,2,Westminster
TOW,-93.29468,44.9617,373,02/13/2019 10:08am,"2104 EMERSON AVE S,Minneapolis,MN",44.9617,-93.29468,7,Calhoun Isle,Lowry Hill,3,2,Westminster
TOW,-93.247464,44.985984,374,02/13/2019 10:10am,"428 5TH AVE SE,Minneapolis,MN",44.985984,-93.247464,3,University,Marcy Holmes,4,2,Westminster
TOW,-93.294707,44.962282,375,02/13/2019 10:14am,"2012 Emerson Ave s,Minneapolis,MN",44.962282,-93.294707,7,Calhoun Isle,Lowry Hill,3,2,Westminster
TOW,-93.291051,44.99141,376,02/13/2019 10:19am,"722 bryant ave n,Minneapolis,MN",44.99141,-93.291051,5,Near North,Near - North,1,2,Westminster
TOW,-93.291051,44.99141,377,02/13/2019 10:20am,"716 Bryant avenue North,Minneapolis,MN",44.99141,-93.291051,5,Near North,Near - North,1,2,Westminster
TOW,-93.290779,44.988392,378,02/13/2019 10:22am,"1038 aldrich abr n ,Minneapolis,MN",44.988392,-93.290779,5,Near North,Sumner - Glenwood,1,2,Westminster
TOW,-93.289053,45.025412,379,02/13/2019 10:22am,"3850 Aldrich ave n ,Minneapolis,MN",45.025412,-93.289053,4,Camden,Webber - Camden,1,2,Westminster
TOW,-93.247178,44.98414,380,02/13/2019 10:22am,"314 6th ave se,Minneapolis,MN",44.98414,-93.247178,3,University,Marcy Holmes,4,2,Westminster
TOW,-93.259434,44.997156,381,02/13/2019 10:24am,"722 5th st ne,Minneapolis,MN",44.997156,-93.259434,3,Northeast,St. Anthony West,2,2,Westminster
TOW,-93.286224,45.02418,382,02/13/2019 10:25am,"3806 6th st n,Minneapolis,MN",45.02418,-93.286224,4,Camden,Webber - Camden,1,2,Westminster
TOW,-93.294664,44.960535,383,02/13/2019 10:25am,"2208 Emerson Ave S,Minneapolis,MN",44.960535,-93.294664,7,Calhoun Isle,East Isles,3,2,Westminster
TOW,-93.294721,44.963083,384,02/13/2019 10:27am,"1940 Emerson ave s,Minneapolis,MN",44.963083,-93.294721,7,Calhoun Isle,Lowry Hill,3,2,Westminster
TOW,-93.255911,44.996743,385,02/13/2019 10:28am,"646 summer st ne,Minneapolis,MN",44.996743,-93.255911,3,Northeast,St. Anthony East,2,2,Westminster
TOW,-93.289108,45.030701,386,02/13/2019 10:28am,"4144 aldrich ave n,Minneapolis,MN",45.030701,-93.289108,4,Camden,Webber - Camden,1,2,Westminster
TOW,-93.312352,44.954046,387,02/13/2019 10:30am,"2700 lake of the isles,Minneapolis,MN",44.954046,-93.312352,7,Calhoun Isle,Cedar - Isles - Dean,3,2,Westminster
TOW,-93.289072,45.022821,388,02/13/2019 10:30am,"3722 Aldrich ave n ,Minneapolis,MN",45.022821,-93.289072,4,Camden,McKinley,1,2,Westminster
TOW,-93.301088,44.947435,389,02/13/2019 10:32am,"3024 humboldt ave s ,Minneapolis,MN",44.947435,-93.301088,10,Calhoun Isle,ECCO,5,2,Westminster
TOW,-93.253149,44.996748,390,02/13/2019 10:32am,"688 summer st ne,Minneapolis,MN",44.996748,-93.253149,3,Northeast,St. Anthony East,2,2,Westminster
TOW,-93.241499,44.986751,391,02/13/2019 10:33am,"702 8th ave se,Minneapolis,MN",44.986751,-93.241499,3,University,Marcy Holmes,4,2,Westminster
TOW,-93.252111,44.996737,392,02/13/2019 10:34am,"706 summer st ne,Minneapolis,MN",44.996737,-93.252111,3,Northeast,St. Anthony East,2,2,Westminster
TOW,-93.246112,44.946616,393,02/13/2019 10:34am,"3044 Longfellow ave s,Minneapolis,MN",44.946616,-93.246112,9,Powderhorn,Corcoran,6,2,Westminster
TOW,-93.294761,44.960283,394,02/13/2019 10:35am,"2216 Emerson ave s,Minneapolis,MN",44.960283,-93.294761,7,Calhoun Isle,East Isles,3,2,Westminster
TOW,-93.291051,44.99141,395,02/13/2019 10:35am,"708 Bryant avenue North,Minneapolis,MN",44.99141,-93.291051,5,Near North,Near - North,1,2,Westminster
TOW,-93.256379,44.99263,396,02/13/2019 10:37am,"322 5th st ne,Minneapolis,MN",44.99263,-93.256379,3,Northeast,St. Anthony West,2,2,Westminster
TOW,-93.246373,44.944318,397,02/13/2019 10:38am,"3210 longfellow,Minneapolis,MN",44.944318,-93.246373,9,Powderhorn,Corcoran,6,2,Westminster
TOW,-93.257107,44.993719,398,02/13/2019 10:39am,"416 5th st ne,Minneapolis,MN",44.993719,-93.257107,3,Northeast,St. Anthony West,2,2,Westminster
TOW,-93.298584,44.958021,399,02/13/2019 10:39am,"2428 humboldt Ave s,Minneapolis,MN",44.958021,-93.298584,7,Calhoun Isle,East Isles,3,2,Westminster
TOW,-93.244897,44.984621,400,02/13/2019 10:39am,"412 7th ave se,Minneapolis,MN",44.984621,-93.244897,3,University,Marcy Holmes,4,2,Westminster
TOW,-93.246374,44.94461,401,02/13/2019 10:40am,"3200 Longfellow,Minneapolis,MN",44.94461,-93.246374,9,Powderhorn,Corcoran,6,2,Westminster
TOW,-93.29471,44.963503,402,02/13/2019 10:40am,"1924 Emerson ave s,Minneapolis,MN",44.963503,-93.29471,7,Calhoun Isle,Lowry Hill,3,2,Westminster
TOW,-93.242641,44.943969,403,02/13/2019 10:42am,"3218 21 ave s,Minneapolis,MN",44.943969,-93.242641,9,Powderhorn,Corcoran,6,2,Westminster
TOW,-93.25408,44.94419,404,02/13/2019 10:44am,"3216 15th ave so,Minneapolis,MN",44.94419,-93.25408,9,Powderhorn,Powderhorn Park,6,2,Westminster
TOW,-93.294763,44.959997,405,02/13/2019 10:47am,"2228 EMERSON AVE S,Minneapolis,MN",44.959997,-93.294763,7,Calhoun Isle,East Isles,3,2,Westminster
TOW,-93.245338,44.988767,406,02/13/2019 10:47am,"712 5th ave se,Minneapolis,MN",44.988767,-93.245338,3,University,Marcy Holmes,4,2,Westminster
TOW,-93.25571,44.991295,407,02/13/2019 10:52am,"214 5th st ne,Minneapolis,MN",44.991295,-93.25571,3,Northeast,St. Anthony West,2,2,Westminster
TOW,-93.289486,44.985792,408,02/13/2019 10:52am,"718 Aldrich avenue North,Minneapolis,MN",44.985792,-93.289486,5,Near North,Sumner - Glenwood,1,2,Westminster
TOW,-93.243945,44.985756,409,02/13/2019 10:53am,"514 7th ave se ,Minneapolis,MN",44.985756,-93.243945,3,University,Marcy Holmes,4,2,Westminster
TOW,-93.28904,45.019101,410,02/13/2019 10:57am,"3518 Aldrich ave n ,Minneapolis,MN",45.019101,-93.28904,4,Camden,McKinley,1,2,Westminster
TOW,-93.28905,45.016866,411,02/13/2019 11:05am,"3400 aldrich ave n ,Minneapolis,MN",45.016866,-93.28905,4,Camden,McKinley,1,2,Westminster
TOW,-93.29471,44.963503,412,02/13/2019 11:07am,"1924 EMERSON EVE S,Minneapolis,MN",44.963503,-93.29471,7,Calhoun Isle,Lowry Hill,3,2,Westminster
TOW,-93.289042,45.017058,413,02/13/2019 11:07am,"3410 aldrich ave n ,Minneapolis,MN",45.017058,-93.289042,4,Camden,McKinley,1,2,Westminster
TOW,-93.242591,44.944316,414,02/13/2019 11:08am,"3208 21st av s,Minneapolis,MN",44.944316,-93.242591,9,Powderhorn,Corcoran,6,2,Westminster
TOW,-93.29981,44.944903,415,02/13/2019 11:09am,"3148 homes ave,Minneapolis,MN",44.944903,-93.29981,10,Calhoun Isle,ECCO,5,2,Westminster
TOW,-93.281078,44.968365,416,02/13/2019 11:09am,"1408 SPRUCE PLACE,Minneapolis,MN",44.968365,-93.281078,7,Central,Loring Park,3,2,Westminster
TOW,-93.297573,44.98958,417,02/13/2019 11:10am,"1122 Humboldt avenue North,Minneapolis,MN",44.98958,-93.297573,5,Near North,Near - North,1,2,Westminster
TOW,-93.295945,44.958449,418,02/13/2019 11:10am,"2434 FREMONT AVE S,Minneapolis,MN",44.958449,-93.295945,7,Calhoun Isle,East Isles,3,2,Westminster
TOW,-93.245124,44.943644,419,02/13/2019 11:11am,"3228 19th Avenue South,Minneapolis,MN",44.943644,-93.245124,9,Powderhorn,Corcoran,6,2,Westminster
TOW,-93.298486,44.956381,420,02/13/2019 11:11am,"2524 humboldt Ave s,Minneapolis,MN",44.956381,-93.298486,7,Calhoun Isle,East Isles,3,2,Westminster
TOW,-93.28324,44.962493,421,02/13/2019 11:12am,"2024 pleasant ave ,Minneapolis,MN",44.962493,-93.28324,10,Powderhorn,Whittier,3,2,Westminster
TOW,-93.243294,44.984384,422,02/13/2019 11:12am,"428. 8th ave se,Minneapolis,MN",44.984384,-93.243294,3,University,Marcy Holmes,4,2,Westminster
TOW,-93.255228,44.929572,423,02/13/2019 11:12am,"4030 14th av s,Minneapolis,MN",44.929572,-93.255228,8,Powderhorn,Bancroft,6,2,Westminster
TOW,-93.242775,44.985031,424,02/13/2019 11:13am,"502 8th ave se,Minneapolis,MN",44.985031,-93.242775,3,University,Marcy Holmes,4,2,Westminster
TOW,-93.289008,45.014425,425,02/13/2019 11:13am,"3238 Aldrich ave n ,Minneapolis,MN",45.014425,-93.289008,4,Camden,McKinley,1,2,Westminster
TOW,-93.301109,44.947272,426,02/13/2019 11:13am,"3030 humboldt,Minneapolis,MN",44.947272,-93.301109,10,Calhoun Isle,ECCO,5,2,Westminster
TOW,-93.246383,44.941777,427,02/13/2019 11:14am,"3328 Longfellow,Minneapolis,MN",44.941777,-93.246383,9,Powderhorn,Corcoran,6,2,Westminster
TOW,-93.291051,44.99141,428,02/13/2019 11:14am,"700 Bryant ave n,Minneapolis,MN",44.99141,-93.291051,5,Near North,Near - North,1,2,Westminster
TOW,-93.260467,45.00139,429,02/13/2019 11:15am,"1314 5th st ne,Minneapolis,MN",45.00139,-93.260467,3,Northeast,Sheridan,2,2,Westminster
TOW,-93.242591,44.944316,430,02/13/2019 11:16am,"3208 21st ave s,Minneapolis,MN",44.944316,-93.242591,9,Powderhorn,Corcoran,6,2,Westminster
TOW,-93.298183,44.991023,431,02/13/2019 11:16am,"1208 humboldt ave n,Minneapolis,MN",44.991023,-93.298183,5,Near North,Near - North,1,2,Westminster
TOW,-93.245806,44.983454,432,02/13/2019 11:17am,"320 7th ave se,Minneapolis,MN",44.983454,-93.245806,3,University,Marcy Holmes,4,2,Westminster
TOW,-93.27497,44.965454,433,02/13/2019 11:18am,"128 18TH ST E,Minneapolis,MN",44.965454,-93.27497,6,Central,Steven's Square - Loring Heights,3,2,Westminster
TOW,-93.243821,44.985913,434,02/13/2019 11:18am,"528 7th ave se,Minneapolis,MN",44.985913,-93.243821,3,University,Marcy Holmes,4,2,Westminster
TOW,-93.259174,45.001828,435,02/13/2019 11:19am,"1328 6th st ne,Minneapolis,MN",45.001828,-93.259174,3,Northeast,Sheridan,2,2,Westminster
TOW,-93.268092,45.000571,436,02/13/2019 11:21am,"1220 main st ne,Minneapolis,MN",45.000571,-93.268092,3,Northeast,Sheridan,2,2,Westminster
TOW,-93.260502,44.999274,437,02/13/2019 11:24am,"1112 5th st ne,Minneapolis,MN",44.999274,-93.260502,3,Northeast,Sheridan,2,2,Westminster
TOW,-93.245473,44.982059,438,02/13/2019 11:24am,"220 8th ave se,Minneapolis,MN",44.982059,-93.245473,3,University,Marcy Holmes,4,2,Westminster
TOW,-93.274787,44.965322,439,02/13/2019 11:26am,"134 18th av e,Minneapolis,MN",44.965322,-93.274787,6,Central,Steven's Square - Loring Heights,3,2,Westminster
TOW,-93.246244,44.983422,440,02/13/2019 11:26am,"304 7TH AVE SE,Minneapolis,MN",44.983422,-93.246244,3,University,Marcy Holmes,4,2,Westminster
TOW,-93.275827,44.965468,441,02/13/2019 11:27am,"108 18TH ST E,Minneapolis,MN",44.965468,-93.275827,6,Central,Steven's Square - Loring Heights,3,2,Westminster
TOW,-93.255317,45.000746,442,02/13/2019 11:28am,"1234 jefferson st ne,Minneapolis,MN",45.000746,-93.255317,1,Northeast,Logan Park,2,2,Westminster
TOW,-93.245427,44.982117,443,02/13/2019 11:28am,"226 8th ave se,Minneapolis,MN",44.982117,-93.245427,3,University,Marcy Holmes,4,2,Westminster
TOW,-93.24263,44.94457,444,02/13/2019 11:29am,"3200 21st ave,Minneapolis,MN",44.94457,-93.24263,9,Powderhorn,Corcoran,6,2,Westminster
TOW,-93.282538,44.96593,445,02/13/2019 11:29am,"234 Clifton ,Minneapolis,MN",44.96593,-93.282538,7,Central,Loring Park,3,2,Westminster
TOW,-93.24263,44.94457,446,02/13/2019 11:30am,"3200 21st ave,Minneapolis,MN",44.94457,-93.24263,9,Powderhorn,Corcoran,6,2,Westminster
TOW,-93.23133,44.978335,447,02/13/2019 11:31am,"3548 17 ave a,Minneapolis,MN",44.978335,-93.23133,2,University,University of Minnesota,4,2,Westminster
TOW,-93.256275,45.005805,448,02/13/2019 11:32am,"1738 adams st ne,Minneapolis,MN",45.005805,-93.256275,1,Northeast,Logan Park,2,2,Westminster
TOW,-93.28114,44.968506,449,02/13/2019 11:32am,"1332 spruce pl,Minneapolis,MN",44.968506,-93.28114,7,Central,Loring Park,3,2,Westminster
TOW,-93.238245,44.983773,450,02/13/2019 11:32am,"526 11th ave se,Minneapolis,MN",44.983773,-93.238245,3,University,Marcy Holmes,4,2,Westminster
TOW,-93.258859,45.008073,451,02/13/2019 11:36am,"1918 6th st ne,Minneapolis,MN",45.008073,-93.258859,1,Northeast,Holland,2,2,Westminster
TOW,-93.296175,44.940181,452,02/13/2019 11:37am,"3434 Fremont ave s,Minneapolis,MN",44.940181,-93.296175,10,Calhoun Isle,CARAG,5,2,Westminster
TOW,-93.245869,44.983375,453,02/13/2019 11:38am,"312 7TH AVE SE,Minneapolis,MN",44.983375,-93.245869,3,University,Marcy Holmes,4,2,Westminster
TOW,-93.236033,44.986533,454,02/13/2019 11:38am,"814 11th ave se,Minneapolis,MN",44.986533,-93.236033,3,University,Marcy Holmes,4,2,Westminster
TOW,-93.297443,44.938536,455,02/13/2019 11:38am,"3534 Gerard ave s,Minneapolis,MN",44.938536,-93.297443,10,Calhoun Isle,CARAG,5,2,Westminster
TOW,-93.297944,44.983107,456,02/13/2019 11:40am,"514 Humboldt Ave N,Minneapolis,MN",44.983107,-93.297944,5,Near North,Harrison,3,2,Westminster
TOW,-93.28353,44.965203,457,02/13/2019 11:40am,"136 Clifton ave,Minneapolis,MN",44.965203,-93.28353,7,Central,Loring Park,3,2,Westminster
TOW,-93.283287,44.959395,458,02/13/2019 11:40am,"2322 pleasant ave ,Minneapolis,MN",44.959395,-93.283287,10,Powderhorn,Whittier,3,2,Westminster
TOW,-93.288998,45.014346,459,02/13/2019 11:41am,"3236 Aldrich ave n ,Minneapolis,MN",45.014346,-93.288998,4,Camden,McKinley,1,2,Westminster
TOW,-93.255517,45.0073,460,02/13/2019 11:41am,"1836 jefferson st ne,Minneapolis,MN",45.0073,-93.255517,1,Northeast,Logan Park,2,2,Westminster
TOW,-93.299838,44.946124,461,02/13/2019 11:41am,"3110 Holmes ave ,Minneapolis,MN",44.946124,-93.299838,10,Calhoun Isle,ECCO,5,2,Westminster
TOW,-93.278649,44.966374,462,02/13/2019 11:43am,"24 OAK GROVE ST,Minneapolis,MN",44.966374,-93.278649,7,Central,Loring Park,3,2,Westminster
TOW,-93.29747,44.94324,463,02/13/2019 11:44am,"3246 Girard ave s,Minneapolis,MN",44.94324,-93.29747,10,Calhoun Isle,CARAG,5,2,Westminster
TOW,-93.2357,44.984768,464,02/13/2019 11:44am,"706 12th ave se,Minneapolis,MN",44.984768,-93.2357,3,University,Marcy Holmes,4,2,Westminster
TOW,-93.275354,44.965466,465,02/13/2019 11:44am,"118 18TH ST E,Minneapolis,MN",44.965466,-93.275354,6,Central,Steven's Square - Loring Heights,3,2,Westminster
TOW,-93.244188,44.983118,466,02/13/2019 11:44am,"314 8th ave se,Minneapolis,MN",44.983118,-93.244188,3,University,Marcy Holmes,4,2,Westminster
TOW,-93.245954,44.989458,467,02/13/2019 11:45am,"422 8th street se,Minneapolis,MN",44.989458,-93.245954,3,University,Marcy Holmes,4,2,Westminster
TOW,-93.260383,45.009528,468,02/13/2019 11:45am,"2110 5th st ne,Minneapolis,MN",45.009528,-93.260383,1,Northeast,Holland,2,2,Westminster
TOW,-93.27584,44.964078,469,02/13/2019 11:48am,"116 19th st e,Minneapolis,MN",44.964078,-93.27584,6,Central,Steven's Square - Loring Heights,3,2,Westminster
TOW,-93.265821,44.975475,470,02/13/2019 11:48am,"412 6th st ,Minneapolis,MN",44.975475,-93.265821,7,Central,Downtown West,3,2,Westminster
TOW,-93.289047,45.020888,471,02/13/2019 11:48am,"3618 aldrich ave n ,Minneapolis,MN",45.020888,-93.289047,4,Camden,McKinley,1,2,Westminster
TOW,-93.260388,45.009535,472,02/13/2019 11:48am,"2112 5th st ne,Minneapolis,MN",45.009535,-93.260388,1,Northeast,Holland,2,2,Westminster
TOW,-93.289029,45.009034,473,02/13/2019 11:51am,"2814 aldrich ave n,Minneapolis,MN",45.009034,-93.289029,5,Near North,Hawthorne,1,2,Westminster
TOW,-93.256635,44.947417,474,02/13/2019 11:52am,"3024 13th ave s,Minneapolis,MN",44.947417,-93.256635,9,Powderhorn,Powderhorn Park,6,2,Westminster
TOW,-93.290765,45.001106,475,02/13/2019 11:53am,"2124 Bryant ave n ,Minneapolis,MN",45.001106,-93.290765,5,Near North,Hawthorne,1,2,Westminster
TOW,-93.290213,44.986766,476,02/13/2019 11:54am,"820 Aldrich ave n,Minneapolis,MN",44.986766,-93.290213,5,Near North,Sumner - Glenwood,1,2,Westminster
TOW,-93.250252,44.941985,477,02/13/2019 11:56am,"3330 17th Avenue South,Minneapolis,MN",44.941985,-93.250252,9,Powderhorn,Powderhorn Park,6,2,Westminster
TOW,-93.275603,44.966164,478,02/13/2019 12:00pm,"1700 STEVENS AVE S ,Minneapolis,MN",44.966164,-93.275603,6,Central,Steven's Square - Loring Heights,3,2,Westminster
TOW,-93.243833,44.985898,479,02/13/2019 12:00pm,"524 7th ave se,Minneapolis,MN",44.985898,-93.243833,3,University,Marcy Holmes,4,2,Westminster
TOW,-93.260605,45.011962,480,02/13/2019 12:00pm,"2324 5th St NE,Minneapolis,MN",45.011962,-93.260605,1,Northeast,Holland,2,2,Westminster
TOW,-93.259203,45.000004,481,02/13/2019 12:01pm,"1206 6th st ne,Minneapolis,MN",45.000004,-93.259203,3,Northeast,Sheridan,2,2,Westminster
TOW,-93.236855,44.983513,482,02/13/2019 12:01pm,"1208 6th st se,Minneapolis,MN",44.983513,-93.236855,3,University,Marcy Holmes,4,2,Westminster
TOW,-93.246658,44.937913,483,02/13/2019 12:01pm,"1834 36th Street East,Minneapolis,MN",44.937913,-93.246658,9,Powderhorn,Corcoran,6,2,Westminster
TOW,-93.244949,44.986535,484,02/13/2019 12:02pm,"604 6th st se,Minneapolis,MN",44.986535,-93.244949,3,University,Marcy Holmes,4,2,Westminster
TOW,-93.238364,44.983606,485,02/13/2019 12:03pm,"514 11th ave se,Minneapolis,MN",44.983606,-93.238364,3,University,Marcy Holmes,4,2,Westminster
TOW,-93.286427,44.965488,486,02/13/2019 12:03pm,"24 DELL PL,Minneapolis,MN",44.965488,-93.286427,7,Central,Loring Park,3,2,Westminster
TOW,-93.253943,45.002341,487,02/13/2019 12:03pm,"1410 Madison st NE,Minneapolis,MN",45.002341,-93.253943,1,Northeast,Logan Park,2,2,Westminster
TOW,-93.275636,44.965005,488,02/13/2019 12:06pm,"1802 stevens,Minneapolis,MN",44.965005,-93.275636,6,Central,Steven's Square - Loring Heights,3,2,Westminster
TOW,-93.299773,44.989177,489,02/13/2019 12:09pm,"1102 Irving ave n,Minneapolis,MN",44.989177,-93.299773,5,Near North,Near - North,1,2,Westminster
TOW,-93.281649,44.954978,490,02/13/2019 12:11pm,"2612 PILLSBURY AV S,Minneapolis,MN",44.954978,-93.281649,10,Powderhorn,Whittier,3,2,Westminster
TOW,-93.308525,44.981589,491,02/13/2019 12:11pm,"2204 4TH AVE N,Minneapolis,MN",44.981589,-93.308525,5,Near North,Harrison,3,2,Westminster
TOW,-93.246787,44.937913,492,02/13/2019 12:11pm,"1832 36th st e,Minneapolis,MN",44.937913,-93.246787,9,Powderhorn,Corcoran,6,2,Westminster
TOW,-93.274345,44.963267,493,02/13/2019 12:12pm,"1918 2ND AVE S,Minneapolis,MN",44.963267,-93.274345,6,Central,Steven's Square - Loring Heights,3,2,Westminster
TOW,-93.283287,44.958348,494,02/13/2019 12:13pm,"2420 pleasant ave ,Minneapolis,MN",44.958348,-93.283287,10,Powderhorn,Whittier,3,2,Westminster
TOW,-93.290832,44.997567,495,02/13/2019 12:14pm,"1802 Bryant avenue North,Minneapolis,MN",44.997567,-93.290832,5,Near North,Near - North,1,2,Westminster
TOW,-93.275643,44.965928,496,02/13/2019 12:14pm,"1714 Stevens Ave s,Minneapolis,MN",44.965928,-93.275643,6,Central,Steven's Square - Loring Heights,3,2,Westminster
TOW,-93.253972,44.99791,497,02/13/2019 12:15pm,"734 Madison st ne,Minneapolis,MN",44.99791,-93.253972,3,Northeast,St. Anthony East,2,2,Westminster
TOW,-93.290782,44.998214,498,02/13/2019 12:17pm,"1820 Bryant Ave., n,MN",44.998214,-93.290782,5,Near North,Near - North,1,2,Westminster
TOW,-93.25017,44.995499,499,02/13/2019 12:17pm,"606 jackson st ne,Minneapolis,MN",44.995499,-93.25017,3,Northeast,St. Anthony East,2,2,Westminster
TOW,-93.255274,44.995995,500,02/13/2019 12:18pm,"628 Jeffreson st ne,Minneapolis,MN",44.995995,-93.255274,3,Northeast,St. Anthony East,2,2,Westminster
TOW,-93.296672,45.034571,501,02/13/2019 12:21pm,"4342 Girard ave n ,Minneapolis,MN",45.034571,-93.296672,4,Camden,Webber - Camden,1,2,Westminster
TOW,-93.250157,44.997161,502,02/13/2019 12:21pm,"704 jackson st ne,Minneapolis,MN",44.997161,-93.250157,3,Northeast,St. Anthony East,2,2,Westminster
TOW,-93.237138,44.985317,503,02/13/2019 12:25pm,"710 11th ave se,Minneapolis,MN",44.985317,-93.237138,3,University,Marcy Holmes,4,2,Westminster
TOW,-93.28324,44.962559,504,02/13/2019 12:25pm,"2016 pleasant ave s,Minneapolis,MN",44.962559,-93.28324,10,Powderhorn,Whittier,3,2,Westminster
TOW,-93.256536,44.947272,505,02/13/2019 12:26pm,"3030 13 ave s,Minneapolis,MN",44.947272,-93.256536,9,Powderhorn,Powderhorn Park,6,2,Westminster
TOW,-93.298083,45.032742,506,02/13/2019 12:26pm,"4234 Humboldt ave n ,Minneapolis,MN",45.032742,-93.298083,4,Camden,Webber - Camden,1,2,Westminster
TOW,-93.230463,44.989005,507,02/13/2019 12:27pm,"1038 15th ave se,Minneapolis,MN",44.989005,-93.230463,1,University,Como,4,2,Westminster
TOW,-93.242184,44.945031,508,02/13/2019 12:28pm,"2102 32nd st,Minneapolis,MN",44.945031,-93.242184,9,Powderhorn,Corcoran,6,2,Westminster
TOW,-93.283718,44.966042,509,02/13/2019 12:28pm,"306 Clifton,Minneapolis,MN",44.966042,-93.283718,7,Central,Loring Park,3,2,Westminster
TOW,-93.242068,44.945031,510,02/13/2019 12:30pm,"2104 32nd st,Minneapolis,MN",44.945031,-93.242068,9,Powderhorn,Corcoran,6,2,Westminster
TOW,-93.244053,44.983295,511,02/13/2019 12:31pm,"328 8th ave se,Minneapolis,MN",44.983295,-93.244053,3,University,Marcy Holmes,4,2,Westminster
TOW,-93.243995,44.98337,512,02/13/2019 12:31pm,"342 8th Avenue SE,Minneapolis,MN",44.98337,-93.243995,3,University,Marcy Holmes,4,2,Westminster
TOW,-93.283237,44.961865,513,02/13/2019 12:31pm,"2100 pleasant ave s ,Minneapolis,MN",44.961865,-93.283237,10,Powderhorn,Whittier,3,2,Westminster
TOW,-93.234567,44.986975,514,02/13/2019 12:32pm,"922 12th ave se,Minneapolis,MN",44.986975,-93.234567,2,University,Como,4,2,Westminster
TOW,-93.285062,44.966768,515,02/13/2019 12:32pm,"400 Clifton,Minneapolis,MN",44.966768,-93.285062,7,Central,Loring Park,3,2,Westminster
TOW,-93.30423,44.981793,516,02/13/2019 12:32pm,"1822 4th av n,Minneapolis,MN",44.981793,-93.30423,5,Near North,Harrison,3,2,Westminster
TOW,-93.242865,44.985738,517,02/13/2019 12:33pm,"728 6th st se,Minneapolis,MN",44.985738,-93.242865,3,University,Marcy Holmes,4,2,Westminster
TOW,-93.297571,44.98944,518,02/13/2019 12:34pm,"1112 Humboldt ave n,Minneapolis,MN",44.98944,-93.297571,5,Near North,Near - North,1,2,Westminster
TOW,-93.297397,44.946261,519,02/13/2019 12:35pm,"3104 girard ave s,Minneapolis,MN",44.946261,-93.297397,10,Calhoun Isle,CARAG,5,2,Westminster
TOW,-93.244422,44.982812,520,02/13/2019 12:37pm,"304 8th Avenue SE,Minneapolis,MN",44.982812,-93.244422,3,University,Marcy Holmes,4,2,Westminster
TOW,-93.275643,44.965885,521,02/13/2019 12:38pm,"1724 STEVENS AVE ,Minneapolis,MN",44.965885,-93.275643,6,Central,Steven's Square - Loring Heights,3,2,Westminster
TOW,-93.294875,44.939963,522,02/13/2019 12:38pm,"3440 Emerson ave s,Minneapolis,MN",44.939963,-93.294875,10,Calhoun Isle,CARAG,5,2,Westminster
TOW,-93.299181,44.993571,523,02/13/2019 12:38pm,"1414 Irving avenue North,Minneapolis,MN",44.993571,-93.299181,5,Near North,Near - North,1,2,Westminster
TOW,-93.275295,44.965877,524,02/13/2019 12:38pm,"1726 Stevens Ave s,Minneapolis,MN",44.965877,-93.275295,6,Central,Steven's Square - Loring Heights,3,2,Westminster
TOW,-93.234314,44.9885,525,02/13/2019 12:41pm,"1020 12th ave se,Minneapolis,MN",44.9885,-93.234314,2,University,Como,4,2,Westminster
TOW,-93.261683,44.944393,526,02/13/2019 12:41pm,"3208 Elliot ave s,Minneapolis,MN",44.944393,-93.261683,9,Powderhorn,Powderhorn Park,6,2,Westminster
TOW,-93.290313,45.007829,527,02/13/2019 12:41pm,"2700 Bryant Ave n ,Minneapolis,MN",45.007829,-93.290313,5,Near North,Hawthorne,1,2,Westminster
TOW,-93.274939,44.965441,528,02/13/2019 12:43pm,"124 18TH ST E,Minneapolis,MN",44.965441,-93.274939,6,Central,Steven's Square - Loring Heights,3,2,Westminster
TOW,-93.309847,44.981581,529,02/13/2019 12:43pm,"2302 4TH AVE N,Minneapolis,MN",44.981581,-93.309847,5,Near North,Harrison,3,2,Westminster
TOW,-93.241237,44.997487,530,02/13/2019 12:45pm,"716 pierce st ne,Minneapolis,MN",44.997487,-93.241237,3,Northeast,Beltrami,2,2,Westminster
TOW,-93.290271,45.00918,531,02/13/2019 12:45pm,"2818 Bryant Ave n ,Minneapolis,MN",45.00918,-93.290271,5,Near North,Hawthorne,1,2,Westminster
TOW,-93.23435,44.989818,532,02/13/2019 12:47pm,"1205 talmage ave se,Minneapolis,MN",44.989818,-93.23435,2,University,Como,4,2,Westminster
TOW,-93.299815,44.988449,533,02/13/2019 12:47pm,"1030 Irving Ave. N.,Minneapolis,MN",44.988449,-93.299815,5,Near North,Near - North,1,2,Westminster
TOW,-93.241952,44.945031,534,02/13/2019 12:48pm,"2106 32nd Street East,Minneapolis,MN",44.945031,-93.241952,9,Powderhorn,Corcoran,6,2,Westminster
TOW,-93.248894,44.998033,535,02/13/2019 12:49pm,"736 van buren st ne,Minneapolis,MN",44.998033,-93.248894,3,Northeast,St. Anthony East,2,2,Westminster
TOW,-93.300326,44.997166,536,02/13/2019 12:49pm,"1726 James ave n,Minneapolis,MN",44.997166,-93.300326,5,Near North,Near - North,1,2,Westminster
TOW,-93.28333,44.954329,537,02/13/2019 12:50pm,"2638 pleasant ave ,Minneapolis,MN",44.954329,-93.28333,10,Powderhorn,Whittier,3,2,Westminster
TOW,-93.274279,44.965619,538,02/13/2019 12:50pm,"1714 2nd ave s,Minneapolis,MN",44.965619,-93.274279,6,Central,Steven's Square - Loring Heights,3,2,Westminster
TOW,-93.241373,44.944933,539,02/13/2019 12:52pm,"2116 32nd Street East,Minneapolis,MN",44.944933,-93.241373,9,Powderhorn,Corcoran,6,2,Westminster
TOW,-93.239997,44.995973,540,02/13/2019 12:53pm,"628 buchanan st ne,Minneapolis,MN",44.995973,-93.239997,3,Northeast,Beltrami,2,2,Westminster
TOW,-93.285869,44.951405,541,02/13/2019 12:53pm,"2814 Harriet ave s,Minneapolis,MN",44.951405,-93.285869,10,Powderhorn,Whittier,3,2,Westminster
TOW,-93.234794,44.986262,542,02/13/2019 12:54pm,"910 12TH AVE SE,Minneapolis,MN",44.986262,-93.234794,3,University,Marcy Holmes,4,2,Westminster
TOW,-93.2858,44.958711,543,02/13/2019 12:58pm,"2408 Harriet ave s,Minneapolis,MN",44.958711,-93.2858,10,Powderhorn,Whittier,3,2,Westminster
TOW,-93.234567,44.986975,544,02/13/2019 12:58pm,"926 12TH AVE SE,Minneapolis,MN",44.986975,-93.234567,2,University,Como,4,2,Westminster
TOW,-93.23513,44.98326,545,02/13/2019 01:02pm,"606 13th ave se,Minneapolis,MN",44.98326,-93.23513,3,University,Marcy Holmes,4,2,Westminster
TOW,-93.301216,45.004391,546,02/13/2019 01:02pm,"2420 James ave n ,Minneapolis,MN",45.004391,-93.301216,5,Near North,Jordan,1,2,Westminster
TOW,-93.297424,44.94453,547,02/13/2019 01:03pm,"3204 girard ave s,Minneapolis,MN",44.94453,-93.297424,10,Calhoun Isle,CARAG,5,2,Westminster
TOW,-93.239006,44.982776,548,02/13/2019 01:04pm,"1102 5th st se,Minneapolis,MN",44.982776,-93.239006,3,University,Marcy Holmes,4,2,Westminster
TOW,-93.230387,44.947327,549,02/13/2019 01:06pm,"3026 29th ave so,Minneapolis,MN",44.947327,-93.230387,2,Longfellow,Longfellow,6,2,Westminster
TOW,-93.235049,44.983345,550,02/13/2019 01:06pm,"610 13th ave se,Minneapolis,MN",44.983345,-93.235049,3,University,Marcy Holmes,4,2,Westminster
TOW,-93.238074,44.937958,551,02/13/2019 01:06pm,"2316 36th st e,Minneapolis,MN",44.937958,-93.238074,9,Powderhorn,Corcoran,6,2,Westminster
TOW,-93.236577,44.983399,552,02/13/2019 01:08pm,"1228 6th st se,Minneapolis,MN",44.983399,-93.236577,3,University,Marcy Holmes,4,2,Westminster
TOW,-93.299085,45.003141,553,02/13/2019 01:08pm,"2316 Irving ave n ,Minneapolis,MN",45.003141,-93.299085,5,Near North,Jordan,1,2,Westminster
TOW,-93.284478,44.966586,554,02/13/2019 01:09pm,"328 CLIFTON AVE,Minneapolis,MN",44.966586,-93.284478,7,Central,Loring Park,3,2,Westminster
TOW,-93.260386,44.947381,555,02/13/2019 01:09pm,"3028 10th Avenue South,Minneapolis,MN",44.947381,-93.260386,9,Powderhorn,Powderhorn Park,6,2,Westminster
TOW,-93.221857,44.910348,556,02/13/2019 01:10pm,"5112 35th av s,Minneapolis,MN",44.910348,-93.221857,12,Nokomis,Minnehaha,6,2,Westminster
TOW,-93.249489,45.013518,557,02/13/2019 01:12pm,"2510 jackson st ne,Minneapolis,MN",45.013518,-93.249489,1,Northeast,Holland,2,2,Westminster
TOW,-93.274028,44.963943,558,02/13/2019 01:12pm,"1900 2ND AVE S ,Minneapolis,MN",44.963943,-93.274028,6,Central,Steven's Square - Loring Heights,3,2,Westminster
TOW,-93.283315,44.960478,559,02/13/2019 01:12pm,"2216 PLEASANT AVE S,Minneapolis,MN",44.960478,-93.283315,10,Powderhorn,Whittier,3,2,Westminster
TOW,-93.244281,44.982996,560,02/13/2019 01:14pm,"310 8th ave se,Minneapolis,MN",44.982996,-93.244281,3,University,Marcy Holmes,4,2,Westminster
TOW,-93.244474,44.98487,561,02/13/2019 01:17pm,"710 5th st se,Minneapolis,MN",44.98487,-93.244474,3,University,Marcy Holmes,4,2,Westminster
TOW,-93.239971,44.994315,562,02/13/2019 01:17pm,"434 buchanan st ne,Minneapolis,MN",44.994315,-93.239971,3,Northeast,Beltrami,2,2,Westminster
TOW,-93.284532,44.957885,563,02/13/2019 01:18pm,"2436 grand Ave ,Minneapolis,MN",44.957885,-93.284532,10,Powderhorn,Whittier,3,2,Westminster
TOW,-93.304185,44.993687,564,02/13/2019 01:18pm,"1418 Morgan avenue North,Minneapolis,MN",44.993687,-93.304185,5,Near North,Willard - Hay,1,2,Westminster
TOW,-93.241721,44.945031,565,02/13/2019 01:19pm,"2110 32nd st,Minneapolis,MN",44.945031,-93.241721,9,Powderhorn,Corcoran,6,2,Westminster
TOW,-93.249405,45.016401,566,02/13/2019 01:20pm,"2648 jackson st ne,Minneapolis,MN",45.016401,-93.249405,1,Northeast,Holland,2,2,Westminster
TOW,-93.241837,44.945031,567,02/13/2019 01:21pm,"2108 32nd st,Minneapolis,MN",44.945031,-93.241837,9,Powderhorn,Corcoran,6,2,Westminster
TOW,-93.284541,44.96117,568,02/13/2019 01:22pm,"2120 grand ave s ,Minneapolis,MN",44.96117,-93.284541,10,Powderhorn,Whittier,3,2,Westminster
TOW,-93.239979,44.996137,569,02/13/2019 01:23pm,"634 buchanan st ne,Minneapolis,MN",44.996137,-93.239979,3,Northeast,Beltrami,2,2,Westminster
TOW,-93.245549,44.981964,570,02/13/2019 01:25pm,"210 8th Avenue SE,Minneapolis,MN",44.981964,-93.245549,3,University,Marcy Holmes,4,2,Westminster
TOW,-93.280969,44.953605,571,02/13/2019 01:27pm,"2701 pillsbury Ave s,Minneapolis,MN",44.953605,-93.280969,10,Powderhorn,Whittier,3,2,Westminster
TOW,-93.293626,44.93968,572,02/13/2019 01:28pm,"3458 DuPont ave s,Minneapolis,MN",44.93968,-93.293626,10,Calhoun Isle,CARAG,5,2,Westminster
TOW,-93.290162,45.007969,573,02/13/2019 01:29pm,"2704 Bryant Ave n,Minneapolis,MN",45.007969,-93.290162,5,Near North,Hawthorne,1,2,Westminster
TOW,-93.3041,44.992428,574,02/13/2019 01:29pm,"1328 Morgan Ave. N.,Minneapolis,MN",44.992428,-93.3041,5,Near North,Willard - Hay,1,2,Westminster
TOW,-93.284453,44.962322,575,02/13/2019 01:30pm,"2008 Grand Ave s,Minneapolis,MN",44.962322,-93.284453,10,Powderhorn,Whittier,3,2,Westminster
TOW,-93.248068,44.987644,576,02/13/2019 01:31pm,"408 6th street se,Minneapolis,MN",44.987644,-93.248068,3,University,Marcy Holmes,4,2,Westminster
TOW,-93.290274,45.009107,577,02/13/2019 01:33pm,"2816 Bryant Ave n ,Minneapolis,MN",45.009107,-93.290274,5,Near North,Hawthorne,1,2,Westminster
TOW,-93.249446,45.006262,578,02/13/2019 01:33pm,"1808 jackson st ne,Minneapolis,MN",45.006262,-93.249446,1,Northeast,Logan Park,2,2,Westminster
TOW,-93.275652,44.9589,579,02/13/2019 01:34pm,"2402 Stevens Ave S,Minneapolis,MN",44.9589,-93.275652,10,Powderhorn,Whittier,3,2,Westminster
TOW,-93.24679,44.988451,580,02/13/2019 01:35pm,"422 7th street se,Minneapolis,MN",44.988451,-93.24679,3,University,Marcy Holmes,4,2,Westminster
TOW,-93.249474,45.01458,581,02/13/2019 01:35pm,"2544 jackson st ne,Minneapolis,MN",45.01458,-93.249474,1,Northeast,Holland,2,2,Westminster
TOW,-93.299267,44.993409,582,02/13/2019 01:36pm,"1408 Irving ave n,Minneapolis,MN",44.993409,-93.299267,5,Near North,Near - North,1,2,Westminster
TOW,-93.227817,44.985015,583,02/13/2019 01:36pm,"1716 Rollins ave se,Minneapolis,MN",44.985015,-93.227817,2,University,Como,4,2,Westminster
TOW,-93.240151,44.943105,584,02/13/2019 01:37pm,"2226 E 33rd St ,Minneapolis,MN",44.943105,-93.240151,9,Powderhorn,Corcoran,6,2,Westminster
TOW,-93.234241,44.982203,585,02/13/2019 01:37pm,"1402 6th st se,Minneapolis,MN",44.982203,-93.234241,3,University,Marcy Holmes,4,2,Westminster
TOW,-93.226673,44.984483,586,02/13/2019 01:40pm,"832 18th ave se,Minneapolis,MN",44.984483,-93.226673,2,University,Como,4,2,Westminster
TOW,-93.297846,45.005014,587,02/13/2019 01:41pm,"2362 Humboldt ave n ,Minneapolis,MN",45.005014,-93.297846,5,Near North,Jordan,1,2,Westminster
TOW,-93.284597,44.961315,588,02/13/2019 01:41pm,"2118 Grand Ave s,Minneapolis,MN",44.961315,-93.284597,10,Powderhorn,Whittier,3,2,Westminster
TOW,-93.241489,44.94503,589,02/13/2019 01:42pm,"2114 32nd Street East,Minneapolis,MN",44.94503,-93.241489,9,Powderhorn,Corcoran,6,2,Westminster
TOW,-93.244709,44.984962,590,02/13/2019 01:43pm,"704 5th st SE,Minneapolis,MN",44.984962,-93.244709,3,University,Marcy Holmes,4,2,Westminster
TOW,-93.302893,44.993902,591,02/13/2019 01:43pm,"1426 Logan ave n,Minneapolis,MN",44.993902,-93.302893,5,Near North,Willard - Hay,1,2,Westminster
TOW,-93.297776,45.007432,592,02/13/2019 01:44pm,"2646 Humboldt ave n ,Minneapolis,MN",45.007432,-93.297776,5,Near North,Jordan,1,2,Westminster
TOW,-93.226624,44.985796,593,02/13/2019 01:45pm,"878 18th ave se,Minneapolis,MN",44.985796,-93.226624,2,University,Como,4,2,Westminster
TOW,-93.302817,44.990677,594,02/13/2019 01:47pm,"1230 Logan avenue North,Minneapolis,MN",44.990677,-93.302817,5,Near North,Near - North,1,2,Westminster
TOW,-93.321206,44.945122,595,02/13/2019 01:48pm,"3322 32 st e,Minneapolis,MN",44.945122,-93.321206,13,Calhoun Isle,West Calhoun,5,2,Westminster
TOW,-93.292195,44.960431,596,02/13/2019 01:48pm,"2210 colfax,Minneapolis,MN",44.960431,-93.292195,10,Calhoun Isle,Lowry Hill East,3,2,Westminster
TOW,-93.29053,44.981239,597,02/13/2019 01:49pm,"308 N Bryant Ave ,Minneapolis,MN",44.981239,-93.29053,5,Near North,Sumner - Glenwood,3,2,Westminster
TOW,-93.284825,44.956628,598,02/13/2019 01:50pm,"2520 grand Ave s,Minneapolis,MN",44.956628,-93.284825,10,Powderhorn,Whittier,3,2,Westminster
TOW,-93.228135,44.989674,599,02/13/2019 01:53pm,"1715 talmage ave se,Minneapolis,MN",44.989674,-93.228135,1,University,Como,4,2,Westminster
TOW,-93.297411,44.938049,600,02/13/2019 01:56pm,"3548 girard ave s,Minneapolis,MN",44.938049,-93.297411,10,Calhoun Isle,CARAG,5,2,Westminster
TOW,-93.285804,44.958475,601,02/13/2019 01:56pm,"2418 HARRIET AVE S,Minneapolis,MN",44.958475,-93.285804,10,Powderhorn,Whittier,3,2,Westminster
TOW,-93.296262,44.942493,602,02/13/2019 01:59pm,"3310 Fremont ave s,Minneapolis,MN",44.942493,-93.296262,10,Calhoun Isle,CARAG,5,2,Westminster
TOW,-93.255793,45.012355,603,02/13/2019 01:59pm,"2400 jefferson st ne,Minneapolis,MN",45.012355,-93.255793,1,Northeast,Holland,2,2,Westminster
TOW,-93.284549,44.9568,604,02/13/2019 02:00pm,"2516 Grand ave s,Minneapolis,MN",44.9568,-93.284549,10,Powderhorn,Whittier,3,2,Westminster
TOW,-93.228728,44.947367,605,02/13/2019 02:01pm,"3026 30th ave so,Minneapolis,MN",44.947367,-93.228728,2,Longfellow,Longfellow,6,2,Westminster
TOW,-93.300743,44.986137,606,02/13/2019 02:01pm,"722 Elwood Ave N,Minneapolis,MN",44.986137,-93.300743,5,Near North,Near - North,1,2,Westminster
TOW,-93.253381,45.012678,607,02/13/2019 02:01pm,"2414 howard st ne,Minneapolis,MN",45.012678,-93.253381,1,Northeast,Holland,2,2,Westminster
TOW,-93.290561,44.983342,608,02/13/2019 02:02pm,"508 Bryant Ave n,Minneapolis,MN",44.983342,-93.290561,5,Near North,Sumner - Glenwood,3,2,Westminster
TOW,-93.292221,44.947563,609,02/13/2019 02:05pm,"3020 Colfax ave s,Minneapolis,MN",44.947563,-93.292221,10,Calhoun Isle,CARAG,5,2,Westminster
TOW,-93.290571,44.982946,610,02/13/2019 02:05pm,"500 N Bryant Ave ,Minneapolis,MN",44.982946,-93.290571,5,Near North,Sumner - Glenwood,3,2,Westminster
TOW,-93.290394,45.008144,611,02/13/2019 02:06pm,"2710 Bryant Ave n,Minneapolis,MN",45.008144,-93.290394,5,Near North,Hawthorne,1,2,Westminster
TOW,-93.251202,45.007743,612,02/13/2019 02:06pm,"1852 quincy st ne,Minneapolis,MN",45.007743,-93.251202,1,Northeast,Logan Park,2,2,Westminster
TOW,-93.302837,44.990612,613,02/13/2019 02:06pm,"1228 Logan avenue North,Minneapolis,MN",44.990612,-93.302837,5,Near North,Near - North,1,2,Westminster
TOW,-93.292177,44.959841,614,02/13/2019 02:09pm,"2306 COLFAX AVE S,Minneapolis,MN",44.959841,-93.292177,10,Calhoun Isle,Lowry Hill East,3,2,Westminster
TOW,-93.290293,45.009034,615,02/13/2019 02:10pm,"2814 Bryant Ave n,Minneapolis,MN",45.009034,-93.290293,5,Near North,Hawthorne,1,2,Westminster
TOW,-93.254603,45.013701,616,02/13/2019 02:11pm,"2514 madison st ne,Minneapolis,MN",45.013701,-93.254603,1,Northeast,Holland,2,2,Westminster
TOW,-93.292359,44.940181,617,02/13/2019 02:11pm,"3434 Colfax ave s,Minneapolis,MN",44.940181,-93.292359,10,Calhoun Isle,CARAG,5,2,Westminster
TOW,-93.281753,44.958302,618,02/13/2019 02:12pm,"2420 PILLSBURY AVE S,Minneapolis,MN",44.958302,-93.281753,10,Powderhorn,Whittier,3,2,Westminster
TOW,-93.299065,45.006647,619,02/13/2019 02:13pm,"2620 Irving ave n ,Minneapolis,MN",45.006647,-93.299065,5,Near North,Jordan,1,2,Westminster
TOW,-93.233612,44.981966,620,02/13/2019 02:15pm,"1416 6th st se,Minneapolis,MN",44.981966,-93.233612,3,University,Marcy Holmes,4,2,Westminster
TOW,-93.262152,45.001814,621,02/13/2019 02:16pm,"354 14th ave ne,Minneapolis,MN",45.001814,-93.262152,3,Northeast,Sheridan,2,2,Westminster
TOW,-93.259048,44.957073,622,02/13/2019 02:16pm,"2504 11TH AVE S ,Minneapolis,MN",44.957073,-93.259048,9,Phillips,Midtown Phillips,3,2,Westminster
TOW,-93.25908,44.955969,623,02/13/2019 02:17pm,"2538 11TH AVE S,Minneapolis,MN",44.955969,-93.25908,9,Phillips,Midtown Phillips,3,2,Westminster
TOW,-93.305451,44.985261,624,02/13/2019 02:22pm,"702 Newton Ave. N.,Minneapolis,MN",44.985261,-93.305451,5,Near North,Near - North,1,2,Westminster
TOW,-93.224267,44.959989,625,02/13/2019 02:23pm,"2304 33rd st,Minneapolis,MN",44.959989,-93.224267,2,Longfellow,Seward,4,2,Westminster
TOW,-93.226597,44.986218,626,02/13/2019 02:23pm,"1827 fairmount st se,Minneapolis,MN",44.986218,-93.226597,2,University,Como,4,2,Westminster
TOW,-93.284501,44.958968,627,02/13/2019 02:24pm,"2400 grand ave s ,Minneapolis,MN",44.958968,-93.284501,10,Powderhorn,Whittier,3,2,Westminster
TOW,-93.269897,45.00134,628,02/13/2019 02:25pm,"116 14th ave ne,Minneapolis,MN",45.00134,-93.269897,3,Northeast,Sheridan,2,2,Westminster
TOW,-93.237837,44.94495,629,02/13/2019 02:27pm,"2328 32nd st,Minneapolis,MN",44.94495,-93.237837,9,Powderhorn,Corcoran,6,2,Westminster
TOW,-93.292177,44.959841,630,02/13/2019 02:27pm,"2306 colfax,Minneapolis,MN",44.959841,-93.292177,10,Calhoun Isle,Lowry Hill East,3,2,Westminster
TOW,-93.262755,45.003989,631,02/13/2019 02:29pm,"332 16th ave ne,Minneapolis,MN",45.003989,-93.262755,3,Northeast,Sheridan,2,2,Westminster
TOW,-93.289694,44.982938,632,02/13/2019 02:29pm,"802 5th ave n,Minneapolis,MN",44.982938,-93.289694,5,Near North,Sumner - Glenwood,3,2,Westminster
TOW,-93.281697,44.952224,633,02/13/2019 02:32pm,"2748 Pillsbury ave ,Minneapolis,MN",44.952224,-93.281697,10,Powderhorn,Whittier,3,2,Westminster
TOW,-93.305412,44.98806,634,02/13/2019 02:32pm,"1002 Newton avenue North,Minneapolis,MN",44.98806,-93.305412,5,Near North,Near - North,1,2,Westminster
TOW,-93.270515,45.001101,635,02/13/2019 02:34pm,"104 14th ave ne,Minneapolis,MN",45.001101,-93.270515,3,Northeast,Sheridan,2,2,Westminster
TOW,-93.306703,44.98721,636,02/13/2019 02:35pm,"908 Oliver Ave n,Minneapolis,MN",44.98721,-93.306703,5,Near North,Near - North,1,2,Westminster
TOW,-93.309382,44.986718,637,02/13/2019 02:37pm,"814 queen ave n ,Minneapolis,MN",44.986718,-93.309382,5,Near North,Willard - Hay,1,2,Westminster
TOW,-93.239622,44.985698,638,02/13/2019 02:40pm,"800 7TH ST SE,Minneapolis,MN",44.985698,-93.239622,3,University,Marcy Holmes,4,2,Westminster
TOW,-93.314438,44.991809,639,02/13/2019 02:42pm,"1306 Upton ave n ,Minneapolis,MN",44.991809,-93.314438,5,Near North,Willard - Hay,1,2,Westminster
TOW,-93.292261,44.945679,640,02/13/2019 02:43pm,"3126 Colfax Ave S ,Minneapolis,MN",44.945679,-93.292261,10,Calhoun Isle,CARAG,5,2,Westminster
TOW,-93.297789,44.979959,641,02/13/2019 02:44pm,"258 humboldt Ave n,Minneapolis,MN",44.979959,-93.297789,5,Near North,Harrison,3,2,Westminster
TOW,-93.229236,44.988256,642,02/13/2019 02:45pm,"1012 16TH AVE SE,Minneapolis,MN",44.988256,-93.229236,1,University,Como,4,2,Westminster
TOW,-93.22598,44.938882,643,02/13/2019 02:45pm,"3520 32nd av s,Minneapolis,MN",44.938882,-93.22598,12,Longfellow,Howe,6,2,Westminster
TOW,-93.233804,44.982038,644,02/13/2019 02:45pm,"1410 6th st se,Minneapolis,MN",44.982038,-93.233804,3,University,Marcy Holmes,4,2,Westminster
TOW,-93.239622,44.985698,645,02/13/2019 02:48pm,"602 7th st se,Minneapolis,MN",44.985698,-93.239622,3,University,Marcy Holmes,4,2,Westminster
TOW,-93.250211,44.940456,646,02/13/2019 02:49pm,"3428 17th av s,Minneapolis,MN",44.940456,-93.250211,9,Powderhorn,Powderhorn Park,6,2,Westminster
TOW,-93.27032,45.001169,647,02/13/2019 02:49pm,"110 14th ave ne,Minneapolis,MN",45.001169,-93.27032,3,Northeast,Sheridan,2,2,Westminster
TOW,-93.224566,44.92613,648,02/13/2019 02:49pm,"4222 33 st e,Minneapolis,MN",44.92613,-93.224566,12,Nokomis,Ericsson,6,2,Westminster
TOW,-93.305418,44.992314,649,02/13/2019 02:50pm,"1322 Newton Ave N,Minneapolis,MN",44.992314,-93.305418,5,Near North,Willard - Hay,1,2,Westminster
TOW,-93.259032,44.938378,650,02/13/2019 02:50pm,"3536 11th Avenue South,Minneapolis,MN",44.938378,-93.259032,9,Powderhorn,Powderhorn Park,6,2,Westminster
TOW,-93.293095,44.986457,651,02/13/2019 02:51pm,"1100 8th street ,Minneapolis,MN",44.986457,-93.293095,5,Near North,Sumner - Glenwood,1,2,Westminster
TOW,-93.289784,44.937431,652,02/13/2019 02:53pm,"3604 Aldrich ave s,Minneapolis,MN",44.937431,-93.289784,10,Southwest,East Harriet,5,2,Westminster
TOW,-93.296769,44.980289,653,02/13/2019 02:53pm,"276 Girard Ave N,Minneapolis,MN",44.980289,-93.296769,5,Near North,Harrison,3,2,Westminster
TOW,-93.237859,44.94495,654,02/13/2019 02:55pm,"2326 32nd st e,Minneapolis,MN",44.94495,-93.237859,9,Powderhorn,Corcoran,6,2,Westminster
TOW,-93.289457,44.96383,655,02/13/2019 02:55pm,"1910 Bryant ave s ,Minneapolis,MN",44.96383,-93.289457,10,Calhoun Isle,Lowry Hill East,3,2,Westminster
TOW,-93.237086,44.984665,656,02/13/2019 02:56pm,"1112 7th ave se,Minneapolis,MN",44.984665,-93.237086,3,University,Marcy Holmes,4,2,Westminster
TOW,-93.285806,44.958366,657,02/13/2019 02:56pm,"2422 HARRIET AVE S,Minneapolis,MN",44.958366,-93.285806,10,Powderhorn,Whittier,3,2,Westminster
TOW,-93.292315,45.000843,658,02/13/2019 02:57pm,"2114 dupont Ave n,Minneapolis,MN",45.000843,-93.292315,5,Near North,Hawthorne,1,2,Westminster
TOW,-93.221989,44.944451,659,02/13/2019 02:58pm,"3214 35th ave so,Minneapolis,MN",44.944451,-93.221989,2,Longfellow,Longfellow,6,2,Westminster
TOW,-93.284565,44.95825,660,02/13/2019 02:59pm,"2424 grand ave s,Minneapolis,MN",44.95825,-93.284565,10,Powderhorn,Whittier,3,2,Westminster
TOW,-93.237174,44.982971,661,02/13/2019 03:00pm,"512 12th ave se,Minneapolis,MN",44.982971,-93.237174,3,University,Marcy Holmes,4,2,Westminster
TOW,-93.267557,45.010078,662,02/13/2019 03:00pm,"110 22nd ave ne,Minneapolis,MN",45.010078,-93.267557,3,Northeast,Bottineau,2,2,Westminster
TOW,-93.287018,44.960562,663,02/13/2019 03:02pm,"2202 GARFIELD AVE S,Minneapolis,MN",44.960562,-93.287018,10,Powderhorn,Whittier,3,2,Westminster
TOW,-93.311751,44.993131,664,02/13/2019 03:04pm,"1350 Sheridan avenue North,Minneapolis,MN",44.993131,-93.311751,5,Near North,Willard - Hay,1,2,Westminster
TOW,-93.265251,45.015182,665,02/13/2019 03:05pm,"230 26th ave ne,Minneapolis,MN",45.015182,-93.265251,1,Northeast,Marshall Terrace,2,2,Westminster
TOW,-93.270565,45.001083,666,02/13/2019 03:07pm,"102 14th ave ne,Minneapolis,MN",45.001083,-93.270565,3,Northeast,Sheridan,2,2,Westminster
TOW,-93.28584,44.954868,667,02/13/2019 03:09pm,"2618 Harrriet Av S,Minneapolis,MN",44.954868,-93.28584,10,Powderhorn,Whittier,3,2,Westminster
TOW,-93.311719,44.991181,668,02/13/2019 03:09pm,"1238 Sheridan ave n,Minneapolis,MN",44.991181,-93.311719,5,Near North,Willard - Hay,1,2,Westminster
TOW,-93.28709,44.958329,669,02/13/2019 03:10pm,"2424 GARFIELD AVE S,Minneapolis,MN",44.958329,-93.28709,10,Powderhorn,Whittier,3,2,Westminster
TOW,-93.233855,44.982093,670,02/13/2019 03:12pm,"1408 6th st se,Minneapolis,MN",44.982093,-93.233855,3,University,Marcy Holmes,4,2,Westminster
TOW,-93.259512,45.009784,671,02/13/2019 03:13pm,"504 22nd ave ne,Minneapolis,MN",45.009784,-93.259512,1,Northeast,Holland,2,2,Westminster
TOW,-93.257279,45.00512,672,02/13/2019 03:17pm,"624 17th ave ne,Minneapolis,MN",45.00512,-93.257279,1,Northeast,Logan Park,2,2,Westminster
TOW,-93.222525,44.986331,673,02/13/2019 03:20pm,"886 21st ave se,Minneapolis,MN",44.986331,-93.222525,2,University,Como,4,2,Westminster
TOW,-93.287222,44.9391,674,02/13/2019 03:20pm,"3508 Garfield ave s,Minneapolis,MN",44.9391,-93.287222,8,Powderhorn,Lyndale,5,2,Westminster
TOW,-93.287406,44.938647,675,02/13/2019 03:23pm,"3522 Garfield ave s,Minneapolis,MN",44.938647,-93.287406,8,Powderhorn,Lyndale,5,2,Westminster
TOW,-93.279126,44.957483,676,02/13/2019 03:23pm,"24 25th st w ,Minneapolis,MN",44.957483,-93.279126,10,Powderhorn,Whittier,3,2,Westminster
TOW,-93.251478,44.952955,677,02/13/2019 03:25pm,"2718 16TH AV S,Minneapolis,MN",44.952955,-93.251478,9,Phillips,East Phillips,3,2,Westminster
TOW,-93.309188,44.999481,678,02/13/2019 03:26pm,"1922 queen ave n,Minneapolis,MN",44.999481,-93.309188,5,Near North,Willard - Hay,1,2,Westminster
TOW,-93.257217,45.008393,679,02/13/2019 03:26pm,"628 20th ave ne,Minneapolis,MN",45.008393,-93.257217,1,Northeast,Holland,2,2,Westminster
TOW,-93.289397,44.946507,680,02/13/2019 03:27pm,"3104 Aldrich ave s,Minneapolis,MN",44.946507,-93.289397,10,Calhoun Isle,CARAG,5,2,Westminster
TOW,-93.306634,44.995508,681,02/13/2019 03:28pm,"1606 Oliver Ave. N. ,Minneapolis,MN",44.995508,-93.306634,5,Near North,Willard - Hay,1,2,Westminster
TOW,-93.254326,44.944977,682,02/13/2019 03:32pm,"1428 32nd st,Minneapolis,MN",44.944977,-93.254326,9,Powderhorn,Powderhorn Park,6,2,Westminster
TOW,-93.254375,44.944977,683,02/13/2019 03:34pm,"1422 32nd st,Minneapolis,MN",44.944977,-93.254375,9,Powderhorn,Powderhorn Park,6,2,Westminster
TOW,-93.23431,44.983505,684,02/13/2019 03:34pm,"1314 7th st se,Minneapolis,MN",44.983505,-93.23431,3,University,Marcy Holmes,4,2,Westminster
TOW,-93.251468,44.952698,685,02/13/2019 03:35pm,"2724 16TH AVE S,Minneapolis,MN",44.952698,-93.251468,9,Phillips,East Phillips,3,2,Westminster
TOW,-93.284965,45.000229,686,02/13/2019 03:36pm,"402 21st ave n,Minneapolis,MN",45.000229,-93.284965,5,Near North,Hawthorne,1,2,Westminster
TOW,-93.309172,44.993702,687,02/13/2019 03:40pm,"1410 Queen avenue North,Minneapolis,MN",44.993702,-93.309172,5,Near North,Willard - Hay,1,2,Westminster
TOW,-93.290288,45.000239,688,02/13/2019 03:41pm,"812 21st ave n,Minneapolis,MN",45.000239,-93.290288,5,Near North,Hawthorne,1,2,Westminster
TOW,-93.255019,44.944257,689,02/13/2019 03:58pm,"3226 14th ave s,Minneapolis,MN",44.944257,-93.255019,9,Powderhorn,Powderhorn Park,6,2,Westminster
